{
  "metadata": {
    "fecha_actualizacion": "2026-06-29T00:00:09.754898",
    "fuente": "OpenStreetMap v2 (tags extendidos)",
    "total_cajeros": 1159
  },
  "cajeros": [
    {
      "id": 252968039,
      "banco": "BancoEstado",
      "lat": -33.4093072,
      "lon": -70.5674466,
      "direccion": "Avenida Apoquindo",
      "ciudad": "Las Condes",
      "nombre_lugar": "Banco Estado",
      "horario": "",
      "acceso": "",
      "fuente": "OpenStreetMap",
      "banco_original_osm": "BancoEstado"
    },
    {
      "id": 252968054,
      "banco": "Banco de Chile",
      "lat": -33.4102001,
      "lon": -70.5713497,
      "direccion": "Avenida Apoquindo 5557",
      "ciudad": "Las Condes",
      "nombre_lugar": "Banco de Chile",
      "horario": "",
      "acceso": "",
      "fuente": "OpenStreetMap",
      "banco_original_osm": "Banco de Chile"
    },
    {
      "id": 273501625,
      "banco": "BCI",
      "lat": -33.4132786,
      "lon": -70.580908,
      "direccion": "",
      "ciudad": "",
      "nombre_lugar": "",
      "horario": "",
      "acceso": "",
      "fuente": "OpenStreetMap",
      "banco_original_osm": "BCI"
    },
    {
      "id": 314071370,
      "banco": "Banco de Chile",
      "lat": -33.4177188,
      "lon": -70.5991379,
      "direccion": "Avenida Apoquindo 2889",
      "ciudad": "Las Condes",
      "nombre_lugar": "Banco de Chile",
      "horario": "",
      "acceso": "",
      "fuente": "OpenStreetMap",
      "banco_original_osm": "Banco de Chile"
    },
    {
      "id": 314071372,
      "banco": "BICE",
      "lat": -33.4173299,
      "lon": -70.5998478,
      "direccion": "Avenida Apoquindo 2858",
      "ciudad": "Las Condes",
      "nombre_lugar": "Banco BICE",
      "horario": "",
      "acceso": "",
      "fuente": "OpenStreetMap",
      "banco_original_osm": "BICE"
    },
    {
      "id": 412330126,
      "banco": "Santander",
      "lat": -33.4082883,
      "lon": -70.5643893,
      "direccion": "",
      "ciudad": "",
      "nombre_lugar": "",
      "horario": "",
      "acceso": "",
      "fuente": "OpenStreetMap",
      "banco_original_osm": "Santander"
    },
    {
      "id": 414267560,
      "banco": "Santander",
      "lat": -33.3666414,
      "lon": -70.6971981,
      "direccion": "Avenida Américo Vespucio 2880",
      "ciudad": "Conchalí",
      "nombre_lugar": "Banco Santander",
      "horario": "",
      "acceso": "",
      "fuente": "OpenStreetMap",
      "banco_original_osm": "Santander"
    },
    {
      "id": 414267561,
      "banco": "Banco de Chile",
      "lat": -33.3666677,
      "lon": -70.6969098,
      "direccion": "Avenida Américo Vespucio 2858",
      "ciudad": "",
      "nombre_lugar": "Banco de Chile",
      "horario": "",
      "acceso": "",
      "fuente": "OpenStreetMap",
      "banco_original_osm": "Banco de Chile"
    },
    {
      "id": 432757972,
      "banco": "Scotiabank",
      "lat": -33.3739767,
      "lon": -70.5185498,
      "direccion": "Avenida Las Condes",
      "ciudad": "",
      "nombre_lugar": "BBVA",
      "horario": "",
      "acceso": "",
      "fuente": "OpenStreetMap",
      "banco_original_osm": "BBVA"
    },
    {
      "id": 448090335,
      "banco": "BancoEstado",
      "lat": -33.4221046,
      "lon": -70.6094875,
      "direccion": "Avenida Ricardo Lyon",
      "ciudad": "Providencia",
      "nombre_lugar": "Banco Estado",
      "horario": "",
      "acceso": "",
      "fuente": "OpenStreetMap",
      "banco_original_osm": "BancoEstado"
    },
    {
      "id": 452594510,
      "banco": "Banco Ripley",
      "lat": -33.4024289,
      "lon": -70.5800529,
      "direccion": "Avenida Presidente Kennedy 5413",
      "ciudad": "Las Condes",
      "nombre_lugar": "Banco Ripley",
      "horario": "",
      "acceso": "",
      "fuente": "OpenStreetMap",
      "banco_original_osm": "Banco Ripley"
    },
    {
      "id": 452594515,
      "banco": "Banco Falabella",
      "lat": -33.4015187,
      "lon": -70.5765069,
      "direccion": "Avenida Presidente Kennedy 5413",
      "ciudad": "Las Condes",
      "nombre_lugar": "Banco Falabella",
      "horario": "",
      "acceso": "",
      "fuente": "OpenStreetMap",
      "banco_original_osm": "Banco Falabella"
    },
    {
      "id": 454049044,
      "banco": "Santander",
      "lat": -33.4112637,
      "lon": -70.5767036,
      "direccion": "Avenida Apoquindo",
      "ciudad": "Las Condes",
      "nombre_lugar": "Santander",
      "horario": "",
      "acceso": "",
      "fuente": "OpenStreetMap",
      "banco_original_osm": "Santander"
    },
    {
      "id": 481514746,
      "banco": "Santander",
      "lat": -33.4164896,
      "lon": -70.5964006,
      "direccion": "Avenida Apoquindo 3200",
      "ciudad": "Las Condes",
      "nombre_lugar": "Banco Santander",
      "horario": "",
      "acceso": "",
      "fuente": "OpenStreetMap",
      "banco_original_osm": "Santander"
    },
    {
      "id": 495576278,
      "banco": "BancoEstado",
      "lat": -33.6099379,
      "lon": -70.5753494,
      "direccion": "Manuel Rodríguez",
      "ciudad": "Puente Alto",
      "nombre_lugar": "Banco Estado Express",
      "horario": "",
      "acceso": "",
      "fuente": "OpenStreetMap",
      "banco_original_osm": "BancoEstado"
    },
    {
      "id": 543238949,
      "banco": "Banco de Chile",
      "lat": -33.4039137,
      "lon": -70.5726352,
      "direccion": "Avenida Presidente Riesco",
      "ciudad": "Las Condes",
      "nombre_lugar": "Banco de Chile",
      "horario": "Mo-Fr 09:00-14:00",
      "acceso": "",
      "fuente": "OpenStreetMap",
      "banco_original_osm": "Banco de Chile"
    },
    {
      "id": 572687278,
      "banco": "Itaú Corpbanca",
      "lat": -33.4278854,
      "lon": -70.6183739,
      "direccion": "Avenida Providencia 1422",
      "ciudad": "Providencia",
      "nombre_lugar": "Itaú",
      "horario": "Mo-Fr 09:00-14:00",
      "acceso": "",
      "fuente": "OpenStreetMap",
      "banco_original_osm": "Itaú"
    },
    {
      "id": 577447489,
      "banco": "Banco de Chile",
      "lat": -33.4242626,
      "lon": -70.6136463,
      "direccion": "Avenida Providencia 1912",
      "ciudad": "Providencia",
      "nombre_lugar": "Banco de Chile",
      "horario": "Mo-Fr 09:00-14:00",
      "acceso": "",
      "fuente": "OpenStreetMap",
      "banco_original_osm": "Banco de Chile"
    },
    {
      "id": 582076365,
      "banco": "BCI",
      "lat": -33.427996,
      "lon": -70.6177467,
      "direccion": "Avenida Antonio Varas",
      "ciudad": "Santiago",
      "nombre_lugar": "BCI",
      "horario": "",
      "acceso": "",
      "fuente": "OpenStreetMap",
      "banco_original_osm": "BCI"
    },
    {
      "id": 583063583,
      "banco": "Scotiabank",
      "lat": -33.4244224,
      "lon": -70.6115099,
      "direccion": "Avenida Nueva Providencia 2045",
      "ciudad": "Providencia",
      "nombre_lugar": "Scotiabank",
      "horario": "",
      "acceso": "",
      "fuente": "OpenStreetMap",
      "banco_original_osm": "Scotiabank"
    },
    {
      "id": 583403718,
      "banco": "BCI",
      "lat": -33.3886349,
      "lon": -70.5780796,
      "direccion": "Luis Pasteur 5840",
      "ciudad": "Vitacura",
      "nombre_lugar": "BCI",
      "horario": "",
      "acceso": "",
      "fuente": "OpenStreetMap",
      "banco_original_osm": "BCI"
    },
    {
      "id": 583403721,
      "banco": "Santander",
      "lat": -33.3900783,
      "lon": -70.5787127,
      "direccion": "Avenida Luis Pasteur 5719",
      "ciudad": "Vitacura",
      "nombre_lugar": "Banco Santander",
      "horario": "",
      "acceso": "",
      "fuente": "OpenStreetMap",
      "banco_original_osm": "Santander"
    },
    {
      "id": 596324405,
      "banco": "Santander",
      "lat": -33.4526581,
      "lon": -70.6513708,
      "direccion": "",
      "ciudad": "",
      "nombre_lugar": "Santander",
      "horario": "",
      "acceso": "",
      "fuente": "OpenStreetMap",
      "banco_original_osm": "Santander"
    },
    {
      "id": 596443570,
      "banco": "BancoEstado",
      "lat": -33.4540252,
      "lon": -70.6502062,
      "direccion": "",
      "ciudad": "",
      "nombre_lugar": "Banco Estado",
      "horario": "",
      "acceso": "",
      "fuente": "OpenStreetMap",
      "banco_original_osm": "BancoEstado"
    },
    {
      "id": 598592480,
      "banco": "Santander",
      "lat": -33.4279585,
      "lon": -70.6186286,
      "direccion": "Avenida Providencia 1414",
      "ciudad": "Providencia",
      "nombre_lugar": "Banco Santander",
      "horario": "Mo-Fr 09:00-14:00",
      "acceso": "",
      "fuente": "OpenStreetMap",
      "banco_original_osm": "Santander"
    },
    {
      "id": 608520858,
      "banco": "Itaú Corpbanca",
      "lat": -33.429035,
      "lon": -70.6183201,
      "direccion": "",
      "ciudad": "Providencia",
      "nombre_lugar": "Itaú",
      "horario": "Mo-Fr 09:00-14:00",
      "acceso": "",
      "fuente": "OpenStreetMap",
      "banco_original_osm": "Itaú"
    },
    {
      "id": 609374214,
      "banco": "BCI",
      "lat": -33.3997544,
      "lon": -70.5741153,
      "direccion": "",
      "ciudad": "",
      "nombre_lugar": "BCI",
      "horario": "",
      "acceso": "",
      "fuente": "OpenStreetMap",
      "banco_original_osm": "BCI"
    },
    {
      "id": 611555103,
      "banco": "Santander",
      "lat": -33.4235185,
      "lon": -70.6109685,
      "direccion": "Avenida Nueva Providencia",
      "ciudad": "Providencia",
      "nombre_lugar": "Banco Santander",
      "horario": "",
      "acceso": "",
      "fuente": "OpenStreetMap",
      "banco_original_osm": "Santander"
    },
    {
      "id": 616754042,
      "banco": "Santander",
      "lat": -33.4151427,
      "lon": -70.6054315,
      "direccion": "Avenida Andrés Bello 2707",
      "ciudad": "",
      "nombre_lugar": "Santander",
      "horario": "",
      "acceso": "",
      "fuente": "OpenStreetMap",
      "banco_original_osm": "Santander"
    },
    {
      "id": 684862456,
      "banco": "Santander",
      "lat": -33.4242138,
      "lon": -70.6129464,
      "direccion": "Avenida Providencia",
      "ciudad": "Providencia",
      "nombre_lugar": "Banco Santander",
      "horario": "Mo-Th 09:00-17:30; Fr 09:00-14:00",
      "acceso": "",
      "fuente": "OpenStreetMap",
      "banco_original_osm": "Santander"
    },
    {
      "id": 703490710,
      "banco": "Itaú Corpbanca",
      "lat": -33.4150965,
      "lon": -70.5894401,
      "direccion": "Avenida Apoquindo 3910",
      "ciudad": "Las Condes",
      "nombre_lugar": "Itaú",
      "horario": "Mo-Fr 09:00-14:00",
      "acceso": "",
      "fuente": "OpenStreetMap",
      "banco_original_osm": "Itaú"
    },
    {
      "id": 806527376,
      "banco": "Banco Security",
      "lat": -33.4220537,
      "lon": -70.6099546,
      "direccion": "Avenida Providencia 2189",
      "ciudad": "Providencia",
      "nombre_lugar": "Banco Security",
      "horario": "09:00 - 14:00",
      "acceso": "",
      "fuente": "OpenStreetMap",
      "banco_original_osm": "Banco Security"
    },
    {
      "id": 822395120,
      "banco": "BCI",
      "lat": -33.3767129,
      "lon": -70.5708322,
      "direccion": "",
      "ciudad": "",
      "nombre_lugar": "",
      "horario": "",
      "acceso": "",
      "fuente": "OpenStreetMap",
      "banco_original_osm": "BCI"
    },
    {
      "id": 823646706,
      "banco": "Redbanc (compartido)",
      "lat": -33.374168,
      "lon": -70.519655,
      "direccion": "",
      "ciudad": "",
      "nombre_lugar": "",
      "horario": "",
      "acceso": "",
      "fuente": "OpenStreetMap",
      "banco_original_osm": "Redbanc (compartido)"
    },
    {
      "id": 899064296,
      "banco": "BCI",
      "lat": -33.3660545,
      "lon": -70.6699747,
      "direccion": "Avenida Pedro Fontova 6251",
      "ciudad": "Huechuraba",
      "nombre_lugar": "BCI",
      "horario": "Mo-Fr 09:00-14:00",
      "acceso": "",
      "fuente": "OpenStreetMap",
      "banco_original_osm": "BCI"
    },
    {
      "id": 940867871,
      "banco": "BCI",
      "lat": -33.4110561,
      "lon": -70.5764662,
      "direccion": "Avenida Apoquindo",
      "ciudad": "Las Condes",
      "nombre_lugar": "BCI",
      "horario": "",
      "acceso": "",
      "fuente": "OpenStreetMap",
      "banco_original_osm": "BCI"
    },
    {
      "id": 950843029,
      "banco": "Santander",
      "lat": -33.6801521,
      "lon": -70.9799731,
      "direccion": "",
      "ciudad": "",
      "nombre_lugar": "Santander",
      "horario": "",
      "acceso": "",
      "fuente": "OpenStreetMap",
      "banco_original_osm": "Santander"
    },
    {
      "id": 964215103,
      "banco": "BancoEstado",
      "lat": -33.4385875,
      "lon": -70.6552668,
      "direccion": "",
      "ciudad": "",
      "nombre_lugar": "",
      "horario": "",
      "acceso": "",
      "fuente": "OpenStreetMap",
      "banco_original_osm": "BancoEstado"
    },
    {
      "id": 965501546,
      "banco": "BCI",
      "lat": -33.4290061,
      "lon": -70.5745178,
      "direccion": "Avenida Américo Vespucio Sur 1816",
      "ciudad": "Las Condes",
      "nombre_lugar": "BCI",
      "horario": "Mo-Fr 09:00-14:00",
      "acceso": "",
      "fuente": "OpenStreetMap",
      "banco_original_osm": "BCI"
    },
    {
      "id": 1013496763,
      "banco": "Banco Falabella",
      "lat": -33.5970625,
      "lon": -70.5770911,
      "direccion": "Avenida Concha y Toro 1477",
      "ciudad": "Puente Alto",
      "nombre_lugar": "",
      "horario": "",
      "acceso": "",
      "fuente": "OpenStreetMap",
      "banco_original_osm": "Banco Falabella"
    },
    {
      "id": 1064723004,
      "banco": "Banco de Chile",
      "lat": -33.4283609,
      "lon": -70.5401661,
      "direccion": "",
      "ciudad": "",
      "nombre_lugar": "",
      "horario": "",
      "acceso": "",
      "fuente": "OpenStreetMap",
      "banco_original_osm": "Banco de Chile"
    },
    {
      "id": 1064723050,
      "banco": "Cajero Lider Rotonda Atenas",
      "lat": -33.4182389,
      "lon": -70.55122,
      "direccion": "",
      "ciudad": "",
      "nombre_lugar": "Cajero Lider Rotonda Atenas",
      "horario": "",
      "acceso": "",
      "fuente": "OpenStreetMap",
      "banco_original_osm": "Cajero Lider Rotonda Atenas"
    },
    {
      "id": 1084006664,
      "banco": "BCI",
      "lat": -33.4159526,
      "lon": -70.6063399,
      "direccion": "Avenida Andrés Bello",
      "ciudad": "Las Condes",
      "nombre_lugar": "BCI",
      "horario": "",
      "acceso": "",
      "fuente": "OpenStreetMap",
      "banco_original_osm": "BCI"
    },
    {
      "id": 1110830358,
      "banco": "BancoEstado",
      "lat": -33.3904432,
      "lon": -70.5707567,
      "direccion": "Avenida Vitacura 6277",
      "ciudad": "Vitacura",
      "nombre_lugar": "Banco Estado",
      "horario": "",
      "acceso": "",
      "fuente": "OpenStreetMap",
      "banco_original_osm": "BancoEstado"
    },
    {
      "id": 1114558161,
      "banco": "Banco de Chile",
      "lat": -33.4409586,
      "lon": -70.5331119,
      "direccion": "",
      "ciudad": "",
      "nombre_lugar": "Banco de Chile",
      "horario": "",
      "acceso": "",
      "fuente": "OpenStreetMap",
      "banco_original_osm": "Banco de Chile"
    },
    {
      "id": 1116111209,
      "banco": "Banco de Chile",
      "lat": -33.4235025,
      "lon": -70.5781232,
      "direccion": "Avenida Cristóbal Colón 4455",
      "ciudad": "Las Condes",
      "nombre_lugar": "Banco de Chile",
      "horario": "",
      "acceso": "",
      "fuente": "OpenStreetMap",
      "banco_original_osm": "Banco de Chile"
    },
    {
      "id": 1118061901,
      "banco": "Santander",
      "lat": -33.3604585,
      "lon": -70.515034,
      "direccion": "Avenida La Dehesa 1201",
      "ciudad": "Lo Barnechea",
      "nombre_lugar": "Santander",
      "horario": "",
      "acceso": "",
      "fuente": "OpenStreetMap",
      "banco_original_osm": "Santander"
    },
    {
      "id": 1118061903,
      "banco": "Banco de Chile",
      "lat": -33.3603779,
      "lon": -70.5150069,
      "direccion": "Avenida La Dehesa 1201",
      "ciudad": "Lo Barnechea",
      "nombre_lugar": "Banco de Chile",
      "horario": "",
      "acceso": "",
      "fuente": "OpenStreetMap",
      "banco_original_osm": "Banco de Chile"
    },
    {
      "id": 1118061904,
      "banco": "Itaú Corpbanca",
      "lat": -33.3605884,
      "lon": -70.5151091,
      "direccion": "Avenida La Dehesa 1201",
      "ciudad": "Lo Barnechea",
      "nombre_lugar": "Corpbanca",
      "horario": "",
      "acceso": "",
      "fuente": "OpenStreetMap",
      "banco_original_osm": "Corpbanca"
    },
    {
      "id": 1119396516,
      "banco": "Banco Security",
      "lat": -33.3477918,
      "lon": -70.5422094,
      "direccion": "Avenida Los Trapenses 3023",
      "ciudad": "Lo Barnechea",
      "nombre_lugar": "Banco Security",
      "horario": "",
      "acceso": "",
      "fuente": "OpenStreetMap",
      "banco_original_osm": "Banco Security"
    },
    {
      "id": 1119396598,
      "banco": "Scotiabank",
      "lat": -33.3475991,
      "lon": -70.54244,
      "direccion": "Avenida Los Trapenses 3023",
      "ciudad": "Lo Barnechea",
      "nombre_lugar": "BBVA",
      "horario": "",
      "acceso": "",
      "fuente": "OpenStreetMap",
      "banco_original_osm": "BBVA"
    },
    {
      "id": 1119559388,
      "banco": "Banco de Chile",
      "lat": -33.3434827,
      "lon": -70.5449907,
      "direccion": "Avenida Los Trapenses 3515",
      "ciudad": "Lo Barnechea",
      "nombre_lugar": "Edwards-Citi",
      "horario": "",
      "acceso": "",
      "fuente": "OpenStreetMap",
      "banco_original_osm": "Edwards-Citi"
    },
    {
      "id": 1119559395,
      "banco": "Itaú Corpbanca",
      "lat": -33.3433973,
      "lon": -70.545055,
      "direccion": "Avenida Los Trapenses 3515",
      "ciudad": "Lo Barnechea",
      "nombre_lugar": "Itaú",
      "horario": "",
      "acceso": "",
      "fuente": "OpenStreetMap",
      "banco_original_osm": "Itaú"
    },
    {
      "id": 1119559400,
      "banco": "Santander",
      "lat": -33.3436844,
      "lon": -70.5447117,
      "direccion": "Avenida Los Trapenses 3515",
      "ciudad": "Lo Barnechea",
      "nombre_lugar": "Banco Santander",
      "horario": "",
      "acceso": "",
      "fuente": "OpenStreetMap",
      "banco_original_osm": "Santander"
    },
    {
      "id": 1119559402,
      "banco": "BCI",
      "lat": -33.3432474,
      "lon": -70.5451995,
      "direccion": "Avenida Los Trapenses 3515",
      "ciudad": "Lo Barnechea",
      "nombre_lugar": "BCI",
      "horario": "",
      "acceso": "",
      "fuente": "OpenStreetMap",
      "banco_original_osm": "BCI"
    },
    {
      "id": 1120340820,
      "banco": "Banco de Chile",
      "lat": -33.4142267,
      "lon": -70.6032957,
      "direccion": "Avenida El Bosque Norte 500",
      "ciudad": "",
      "nombre_lugar": "Banco Edwards-Citi",
      "horario": "",
      "acceso": "",
      "fuente": "OpenStreetMap",
      "banco_original_osm": "Banco Edwards-Citi"
    },
    {
      "id": 1120340912,
      "banco": "Banco Penta",
      "lat": -33.4142286,
      "lon": -70.60279,
      "direccion": "Isidora Goyenechea",
      "ciudad": "Las Condes",
      "nombre_lugar": "Banco Penta",
      "horario": "",
      "acceso": "",
      "fuente": "OpenStreetMap",
      "banco_original_osm": "Banco Penta"
    },
    {
      "id": 1120340949,
      "banco": "Scotiabank",
      "lat": -33.4136512,
      "lon": -70.6026066,
      "direccion": "Isidora Goyenechea",
      "ciudad": "Las Condes",
      "nombre_lugar": "Scotiabank",
      "horario": "",
      "acceso": "",
      "fuente": "OpenStreetMap",
      "banco_original_osm": "Scotiabank"
    },
    {
      "id": 1120382607,
      "banco": "Banco de Chile",
      "lat": -33.4154845,
      "lon": -70.6057035,
      "direccion": "Avenida Andrés Bello 2687",
      "ciudad": "",
      "nombre_lugar": "Banco de Chile",
      "horario": "",
      "acceso": "",
      "fuente": "OpenStreetMap",
      "banco_original_osm": "Banco de Chile"
    },
    {
      "id": 1120475195,
      "banco": "Santander",
      "lat": -33.4151151,
      "lon": -70.6009822,
      "direccion": "Avenida El Bosque Norte 0169",
      "ciudad": "Las Condes",
      "nombre_lugar": "Banco Santander",
      "horario": "",
      "acceso": "",
      "fuente": "OpenStreetMap",
      "banco_original_osm": "Santander"
    },
    {
      "id": 1125506394,
      "banco": "Itaú Corpbanca",
      "lat": -33.402353,
      "lon": -70.5140907,
      "direccion": "Camino El Alba 11969",
      "ciudad": "Las Condes",
      "nombre_lugar": "Itaú",
      "horario": "",
      "acceso": "",
      "fuente": "OpenStreetMap",
      "banco_original_osm": "Itaú"
    },
    {
      "id": 1125506396,
      "banco": "Santander",
      "lat": -33.402046,
      "lon": -70.5165361,
      "direccion": "Camino El Alba 11865",
      "ciudad": "",
      "nombre_lugar": "Banco Santander",
      "horario": "",
      "acceso": "",
      "fuente": "OpenStreetMap",
      "banco_original_osm": "Santander"
    },
    {
      "id": 1125506443,
      "banco": "Banco de Chile",
      "lat": -33.4016922,
      "lon": -70.5165678,
      "direccion": "Camino El Alba 11865",
      "ciudad": "",
      "nombre_lugar": "Edwards-Citi",
      "horario": "",
      "acceso": "",
      "fuente": "OpenStreetMap",
      "banco_original_osm": "Edwards-Citi"
    },
    {
      "id": 1125506465,
      "banco": "BancoEstado",
      "lat": -33.4021403,
      "lon": -70.5165308,
      "direccion": "Camino El Alba 11865",
      "ciudad": "",
      "nombre_lugar": "Banco Estado",
      "horario": "",
      "acceso": "",
      "fuente": "OpenStreetMap",
      "banco_original_osm": "BancoEstado"
    },
    {
      "id": 1125506497,
      "banco": "BCI",
      "lat": -33.4024448,
      "lon": -70.5140041,
      "direccion": "Camino El Alba 11969",
      "ciudad": "Las Condes",
      "nombre_lugar": "BCI",
      "horario": "",
      "acceso": "",
      "fuente": "OpenStreetMap",
      "banco_original_osm": "BCI"
    },
    {
      "id": 1237339333,
      "banco": "BancoEstado",
      "lat": -33.5953759,
      "lon": -70.5906182,
      "direccion": "",
      "ciudad": "",
      "nombre_lugar": "",
      "horario": "",
      "acceso": "",
      "fuente": "OpenStreetMap",
      "banco_original_osm": "BancoEstado"
    },
    {
      "id": 1237728358,
      "banco": "BancoEstado",
      "lat": -33.6015885,
      "lon": -70.5789875,
      "direccion": "",
      "ciudad": "",
      "nombre_lugar": "Redbanc",
      "horario": "",
      "acceso": "",
      "fuente": "OpenStreetMap",
      "banco_original_osm": "BancoEstado"
    },
    {
      "id": 1239340024,
      "banco": "Itaú Corpbanca",
      "lat": -33.4540062,
      "lon": -70.576566,
      "direccion": "Avenida Irarrázaval 5156",
      "ciudad": "Ñuñoa",
      "nombre_lugar": "Itaú",
      "horario": "",
      "acceso": "",
      "fuente": "OpenStreetMap",
      "banco_original_osm": "Itaú"
    },
    {
      "id": 1258931756,
      "banco": "Banco de Chile",
      "lat": -33.4424257,
      "lon": -70.6364794,
      "direccion": "Diagonal Paraguay 205",
      "ciudad": "",
      "nombre_lugar": "Banco de Chile",
      "horario": "",
      "acceso": "",
      "fuente": "OpenStreetMap",
      "banco_original_osm": "Banco de Chile"
    },
    {
      "id": 1258955491,
      "banco": "Santander",
      "lat": -33.4427307,
      "lon": -70.6376612,
      "direccion": "",
      "ciudad": "",
      "nombre_lugar": "Santander",
      "horario": "",
      "acceso": "",
      "fuente": "OpenStreetMap",
      "banco_original_osm": "Santander"
    },
    {
      "id": 1258971842,
      "banco": "Santander",
      "lat": -33.4399768,
      "lon": -70.6397834,
      "direccion": "",
      "ciudad": "",
      "nombre_lugar": "",
      "horario": "",
      "acceso": "",
      "fuente": "OpenStreetMap",
      "banco_original_osm": "Santander"
    },
    {
      "id": 1258976350,
      "banco": "Redbanc (compartido)",
      "lat": -33.4432,
      "lon": -70.6375436,
      "direccion": "",
      "ciudad": "",
      "nombre_lugar": "",
      "horario": "",
      "acceso": "",
      "fuente": "OpenStreetMap",
      "banco_original_osm": "Redbanc (compartido)"
    },
    {
      "id": 1275131538,
      "banco": "BancoEstado",
      "lat": -33.8085567,
      "lon": -70.7416113,
      "direccion": "Avenida 18 de Septiembre 20",
      "ciudad": "Paine",
      "nombre_lugar": "Banco Estado",
      "horario": "",
      "acceso": "",
      "fuente": "OpenStreetMap",
      "banco_original_osm": "BancoEstado"
    },
    {
      "id": 1277841793,
      "banco": "BancoEstado",
      "lat": -33.8085433,
      "lon": -70.7417224,
      "direccion": "Avenida 18 de Septiembre 20",
      "ciudad": "Paine",
      "nombre_lugar": "Banco Chile",
      "horario": "",
      "acceso": "",
      "fuente": "OpenStreetMap",
      "banco_original_osm": "BancoEstado"
    },
    {
      "id": 1302780328,
      "banco": "Banco de Chile",
      "lat": -33.8549402,
      "lon": -70.763257,
      "direccion": "",
      "ciudad": "",
      "nombre_lugar": "",
      "horario": "",
      "acceso": "",
      "fuente": "OpenStreetMap",
      "banco_original_osm": "banco chile"
    },
    {
      "id": 1306307923,
      "banco": "Redbanc (compartido)",
      "lat": -33.8079326,
      "lon": -70.7376453,
      "direccion": "Avenida 18 de Septiembre 305",
      "ciudad": "Paine",
      "nombre_lugar": "Redbanc",
      "horario": "",
      "acceso": "",
      "fuente": "OpenStreetMap",
      "banco_original_osm": "Redbanc (compartido)"
    },
    {
      "id": 1368126585,
      "banco": "BCI",
      "lat": -33.39429,
      "lon": -70.6201689,
      "direccion": "",
      "ciudad": "",
      "nombre_lugar": "",
      "horario": "",
      "acceso": "",
      "fuente": "OpenStreetMap",
      "banco_original_osm": "BCI"
    },
    {
      "id": 1395534493,
      "banco": "Itaú Corpbanca",
      "lat": -33.4544398,
      "lon": -70.603923,
      "direccion": "Avenida Irarrázaval",
      "ciudad": "Ñuñoa",
      "nombre_lugar": "Corpbanca",
      "horario": "",
      "acceso": "",
      "fuente": "OpenStreetMap",
      "banco_original_osm": "Corpbanca"
    },
    {
      "id": 1398824208,
      "banco": "BancoEstado",
      "lat": -33.4745013,
      "lon": -70.5992208,
      "direccion": "",
      "ciudad": "",
      "nombre_lugar": "",
      "horario": "",
      "acceso": "",
      "fuente": "OpenStreetMap",
      "banco_original_osm": "BancoEstado"
    },
    {
      "id": 1430490333,
      "banco": "BancoEstado",
      "lat": -33.5928213,
      "lon": -70.7055747,
      "direccion": "",
      "ciudad": "",
      "nombre_lugar": "Banco Estado",
      "horario": "",
      "acceso": "",
      "fuente": "OpenStreetMap",
      "banco_original_osm": "BancoEstado"
    },
    {
      "id": 1619357253,
      "banco": "Banco de Chile",
      "lat": -33.877288,
      "lon": -70.8850357,
      "direccion": "",
      "ciudad": "",
      "nombre_lugar": "",
      "horario": "",
      "acceso": "",
      "fuente": "OpenStreetMap",
      "banco_original_osm": "Banco de Chile"
    },
    {
      "id": 1657845962,
      "banco": "Santander",
      "lat": -33.4382995,
      "lon": -70.5610098,
      "direccion": "Avenida Príncipe de Gales 6880",
      "ciudad": "La Reina",
      "nombre_lugar": "",
      "horario": "",
      "acceso": "",
      "fuente": "OpenStreetMap",
      "banco_original_osm": "Santander"
    },
    {
      "id": 1659939326,
      "banco": "Banco de Chile",
      "lat": -33.2771583,
      "lon": -70.6277475,
      "direccion": "",
      "ciudad": "",
      "nombre_lugar": "Banco de Chile",
      "horario": "",
      "acceso": "",
      "fuente": "OpenStreetMap",
      "banco_original_osm": "Banco de Chile"
    },
    {
      "id": 1674998854,
      "banco": "BCI",
      "lat": -33.732793,
      "lon": -70.7412707,
      "direccion": "",
      "ciudad": "",
      "nombre_lugar": "BCI",
      "horario": "",
      "acceso": "",
      "fuente": "OpenStreetMap",
      "banco_original_osm": "BCI"
    },
    {
      "id": 1699954098,
      "banco": "Itaú Corpbanca",
      "lat": -33.4982062,
      "lon": -70.6102256,
      "direccion": "",
      "ciudad": "",
      "nombre_lugar": "Itaú",
      "horario": "Mo-Fr 09:00-14:00",
      "acceso": "",
      "fuente": "OpenStreetMap",
      "banco_original_osm": "Itaú"
    },
    {
      "id": 1709364093,
      "banco": "Santander",
      "lat": -33.4023433,
      "lon": -70.5138779,
      "direccion": "Camino El Alba 11969",
      "ciudad": "Las Condes",
      "nombre_lugar": "Banco Santander",
      "horario": "",
      "acceso": "",
      "fuente": "OpenStreetMap",
      "banco_original_osm": "Santander"
    },
    {
      "id": 1716152177,
      "banco": "Banco de Chile",
      "lat": -33.4649881,
      "lon": -70.5978111,
      "direccion": "Avenida José Pedro Alessandri 1166",
      "ciudad": "",
      "nombre_lugar": "",
      "horario": "Mo-Sa 08:30-20:00; Su 10:00-20:00",
      "acceso": "",
      "fuente": "OpenStreetMap",
      "banco_original_osm": "Banco de Chile"
    },
    {
      "id": 1721782555,
      "banco": "Banco de Chile",
      "lat": -33.4412508,
      "lon": -70.6519962,
      "direccion": "Bandera 171",
      "ciudad": "",
      "nombre_lugar": "Banco de Chile",
      "horario": "",
      "acceso": "",
      "fuente": "OpenStreetMap",
      "banco_original_osm": "Banco de Chile"
    },
    {
      "id": 1722083143,
      "banco": "Santander",
      "lat": -33.4446412,
      "lon": -70.6565333,
      "direccion": "Avenida Libertador Bernardo O'Higgins",
      "ciudad": "Santiago",
      "nombre_lugar": "Banco Santander",
      "horario": "",
      "acceso": "",
      "fuente": "OpenStreetMap",
      "banco_original_osm": "Santander"
    },
    {
      "id": 1723440548,
      "banco": "BancoEstado",
      "lat": -33.4537144,
      "lon": -70.6889521,
      "direccion": "",
      "ciudad": "",
      "nombre_lugar": "Banco Estado",
      "horario": "",
      "acceso": "",
      "fuente": "OpenStreetMap",
      "banco_original_osm": "BancoEstado"
    },
    {
      "id": 1747219456,
      "banco": "Santander",
      "lat": -33.451684,
      "lon": -70.6777113,
      "direccion": "",
      "ciudad": "",
      "nombre_lugar": "Banco Santander",
      "horario": "",
      "acceso": "",
      "fuente": "OpenStreetMap",
      "banco_original_osm": "Santander"
    },
    {
      "id": 1747224694,
      "banco": "Scotiabank",
      "lat": -33.4418982,
      "lon": -70.6492972,
      "direccion": "",
      "ciudad": "",
      "nombre_lugar": "Scotiabank",
      "horario": "",
      "acceso": "",
      "fuente": "OpenStreetMap",
      "banco_original_osm": "Scotiabank"
    },
    {
      "id": 1747264995,
      "banco": "Redbanc (compartido)",
      "lat": -33.4353318,
      "lon": -70.6512791,
      "direccion": "Puente 689",
      "ciudad": "Santiago",
      "nombre_lugar": "redbanc",
      "horario": "",
      "acceso": "",
      "fuente": "OpenStreetMap",
      "banco_original_osm": "Redbanc (compartido)"
    },
    {
      "id": 1754035370,
      "banco": "BancoEstado",
      "lat": -33.4420406,
      "lon": -70.6508448,
      "direccion": "",
      "ciudad": "Santiago",
      "nombre_lugar": "Banco Estado",
      "horario": "",
      "acceso": "",
      "fuente": "OpenStreetMap",
      "banco_original_osm": "BancoEstado"
    },
    {
      "id": 1757399674,
      "banco": "BancoEstado (Caja Vecina)",
      "lat": -33.449745,
      "lon": -70.673422,
      "direccion": "",
      "ciudad": "",
      "nombre_lugar": "ServiEstado",
      "horario": "",
      "acceso": "",
      "fuente": "OpenStreetMap",
      "banco_original_osm": "ServiEstado"
    },
    {
      "id": 1771005455,
      "banco": "Santander",
      "lat": -33.3791942,
      "lon": -70.6393001,
      "direccion": "",
      "ciudad": "",
      "nombre_lugar": "Santander",
      "horario": "",
      "acceso": "",
      "fuente": "OpenStreetMap",
      "banco_original_osm": "Santander"
    },
    {
      "id": 1771005464,
      "banco": "BancoEstado",
      "lat": -33.3743464,
      "lon": -70.6373991,
      "direccion": "",
      "ciudad": "",
      "nombre_lugar": "Banco Estado",
      "horario": "",
      "acceso": "",
      "fuente": "OpenStreetMap",
      "banco_original_osm": "BancoEstado"
    },
    {
      "id": 1806331340,
      "banco": "Banco de Chile",
      "lat": -33.5597757,
      "lon": -70.5515215,
      "direccion": "Avenida Diego Portales 6303",
      "ciudad": "",
      "nombre_lugar": "Redbanc Lider Ciudad del Este",
      "horario": "",
      "acceso": "",
      "fuente": "OpenStreetMap",
      "banco_original_osm": "Banco de Chile"
    },
    {
      "id": 1904413616,
      "banco": "BCI",
      "lat": -33.4145618,
      "lon": -70.5915222,
      "direccion": "El Golf 125",
      "ciudad": "Las Condes",
      "nombre_lugar": "BCI",
      "horario": "Mo-Fr 09:00-14:00",
      "acceso": "",
      "fuente": "OpenStreetMap",
      "banco_original_osm": "BCI"
    },
    {
      "id": 1905994263,
      "banco": "BancoEstado",
      "lat": -33.5430736,
      "lon": -70.5696093,
      "direccion": "",
      "ciudad": "",
      "nombre_lugar": "Banco Estado",
      "horario": "",
      "acceso": "",
      "fuente": "OpenStreetMap",
      "banco_original_osm": "BancoEstado"
    },
    {
      "id": 1935825782,
      "banco": "Santander",
      "lat": -33.4161744,
      "lon": -70.5913131,
      "direccion": "Gertrudis Echeñique 30",
      "ciudad": "Las Condes",
      "nombre_lugar": "Santander",
      "horario": "Mo-Fr 09:00-14:00",
      "acceso": "",
      "fuente": "OpenStreetMap",
      "banco_original_osm": "Santander"
    },
    {
      "id": 1937497667,
      "banco": "Banco Security",
      "lat": -33.2853097,
      "lon": -70.6842029,
      "direccion": "",
      "ciudad": "",
      "nombre_lugar": "Banco Security",
      "horario": "",
      "acceso": "",
      "fuente": "OpenStreetMap",
      "banco_original_osm": "Banco Security"
    },
    {
      "id": 2026340020,
      "banco": "Banco de Chile",
      "lat": -33.5007607,
      "lon": -70.6679867,
      "direccion": "Avenida José Joaquín Prieto Vial 5531",
      "ciudad": "Pedro Aguirre Cerda",
      "nombre_lugar": "Credichile",
      "horario": "",
      "acceso": "",
      "fuente": "OpenStreetMap",
      "banco_original_osm": "Credichile"
    },
    {
      "id": 2056430765,
      "banco": "Santander",
      "lat": -33.6013045,
      "lon": -70.5780502,
      "direccion": "",
      "ciudad": "",
      "nombre_lugar": "",
      "horario": "",
      "acceso": "",
      "fuente": "OpenStreetMap",
      "banco_original_osm": "Santander"
    },
    {
      "id": 2067537632,
      "banco": "BancoEstado",
      "lat": -33.4318629,
      "lon": -70.692868,
      "direccion": "",
      "ciudad": "",
      "nombre_lugar": "Banco Estado",
      "horario": "",
      "acceso": "",
      "fuente": "OpenStreetMap",
      "banco_original_osm": "BancoEstado"
    },
    {
      "id": 2076715417,
      "banco": "BancoEstado",
      "lat": -33.472591,
      "lon": -70.6561946,
      "direccion": "",
      "ciudad": "",
      "nombre_lugar": "",
      "horario": "",
      "acceso": "",
      "fuente": "OpenStreetMap",
      "banco_original_osm": "BancoEstado"
    },
    {
      "id": 2394681361,
      "banco": "BancoEstado",
      "lat": -33.5819491,
      "lon": -70.6059671,
      "direccion": "",
      "ciudad": "",
      "nombre_lugar": "",
      "horario": "",
      "acceso": "",
      "fuente": "OpenStreetMap",
      "banco_original_osm": "BancoEstado"
    },
    {
      "id": 2413069837,
      "banco": "Banco de Chile",
      "lat": -33.4229026,
      "lon": -70.6074244,
      "direccion": "",
      "ciudad": "Providencia",
      "nombre_lugar": "Banco de Chile",
      "horario": "",
      "acceso": "",
      "fuente": "OpenStreetMap",
      "banco_original_osm": "Banco de Chile"
    },
    {
      "id": 2437552985,
      "banco": "Santander",
      "lat": -33.4981325,
      "lon": -70.613018,
      "direccion": "",
      "ciudad": "",
      "nombre_lugar": "Santander",
      "horario": "",
      "acceso": "",
      "fuente": "OpenStreetMap",
      "banco_original_osm": "Santander"
    },
    {
      "id": 2488932384,
      "banco": "Banco de Chile",
      "lat": -33.4537556,
      "lon": -70.6584039,
      "direccion": "",
      "ciudad": "",
      "nombre_lugar": "Banco de Chile",
      "horario": "",
      "acceso": "",
      "fuente": "OpenStreetMap",
      "banco_original_osm": "Banco de Chile"
    },
    {
      "id": 2508423969,
      "banco": "BICE",
      "lat": -33.4152851,
      "lon": -70.5905844,
      "direccion": "Avenida Apoquindo 3846",
      "ciudad": "Las Condes",
      "nombre_lugar": "Banco BICE",
      "horario": "Mo-Fr 09:00-14:00",
      "acceso": "",
      "fuente": "OpenStreetMap",
      "banco_original_osm": "BICE"
    },
    {
      "id": 2528104445,
      "banco": "Banco Falabella",
      "lat": -33.5379887,
      "lon": -70.6637795,
      "direccion": "Avenida Américo Vespucio 33",
      "ciudad": "",
      "nombre_lugar": "Banco Falabella",
      "horario": "",
      "acceso": "",
      "fuente": "OpenStreetMap",
      "banco_original_osm": "Banco Falabella"
    },
    {
      "id": 2592748474,
      "banco": "BancoEstado",
      "lat": -33.4320096,
      "lon": -70.6475404,
      "direccion": "",
      "ciudad": "",
      "nombre_lugar": "Banco Estado",
      "horario": "",
      "acceso": "",
      "fuente": "OpenStreetMap",
      "banco_original_osm": "BancoEstado"
    },
    {
      "id": 2790935525,
      "banco": "Banco de Chile",
      "lat": -33.4266467,
      "lon": -70.5910076,
      "direccion": "",
      "ciudad": "",
      "nombre_lugar": "Banco de Chile",
      "horario": "",
      "acceso": "",
      "fuente": "OpenStreetMap",
      "banco_original_osm": "Banco de Chile"
    },
    {
      "id": 2815807471,
      "banco": "Banco de Chile",
      "lat": -33.4185817,
      "lon": -70.6029805,
      "direccion": "",
      "ciudad": "",
      "nombre_lugar": "Banco de Chile",
      "horario": "",
      "acceso": "",
      "fuente": "OpenStreetMap",
      "banco_original_osm": "Banco de Chile"
    },
    {
      "id": 2864662301,
      "banco": "Banco Falabella",
      "lat": -33.4367174,
      "lon": -70.6512171,
      "direccion": "Puente 557",
      "ciudad": "Santiago",
      "nombre_lugar": "Banco Falabella",
      "horario": "",
      "acceso": "",
      "fuente": "OpenStreetMap",
      "banco_original_osm": "Banco Falabella"
    },
    {
      "id": 3005389077,
      "banco": "Banco de Chile",
      "lat": -33.4396159,
      "lon": -70.6454899,
      "direccion": "",
      "ciudad": "",
      "nombre_lugar": "Banco de Chile",
      "horario": "",
      "acceso": "",
      "fuente": "OpenStreetMap",
      "banco_original_osm": "Banco de Chile"
    },
    {
      "id": 3049648458,
      "banco": "Santander",
      "lat": -33.4213819,
      "lon": -70.5976639,
      "direccion": "",
      "ciudad": "",
      "nombre_lugar": "",
      "horario": "",
      "acceso": "",
      "fuente": "OpenStreetMap",
      "banco_original_osm": "Santander"
    },
    {
      "id": 3054319810,
      "banco": "Santander",
      "lat": -33.4458754,
      "lon": -70.6537243,
      "direccion": "",
      "ciudad": "",
      "nombre_lugar": "Santander",
      "horario": "",
      "acceso": "",
      "fuente": "OpenStreetMap",
      "banco_original_osm": "Santander"
    },
    {
      "id": 3067581021,
      "banco": "Santander",
      "lat": -33.4458647,
      "lon": -70.6536394,
      "direccion": "Avenida Presidente Bulnes",
      "ciudad": "Santiago",
      "nombre_lugar": "Banco Santander",
      "horario": "",
      "acceso": "",
      "fuente": "OpenStreetMap",
      "banco_original_osm": "Santander"
    },
    {
      "id": 3143982733,
      "banco": "Banco de Chile",
      "lat": -33.4505156,
      "lon": -70.5439555,
      "direccion": "",
      "ciudad": "",
      "nombre_lugar": "Banco de Chile",
      "horario": "",
      "acceso": "",
      "fuente": "OpenStreetMap",
      "banco_original_osm": "Banco de Chile"
    },
    {
      "id": 3201576456,
      "banco": "Itaú Corpbanca",
      "lat": -33.4194986,
      "lon": -70.6180406,
      "direccion": "",
      "ciudad": "",
      "nombre_lugar": "",
      "horario": "",
      "acceso": "",
      "fuente": "OpenStreetMap",
      "banco_original_osm": "Itaú"
    },
    {
      "id": 3238069038,
      "banco": "Banco de Chile",
      "lat": -33.4334501,
      "lon": -70.6258842,
      "direccion": "",
      "ciudad": "",
      "nombre_lugar": "Banco Edwards",
      "horario": "",
      "acceso": "",
      "fuente": "OpenStreetMap",
      "banco_original_osm": "Banco Edwards"
    },
    {
      "id": 3264552064,
      "banco": "BancoEstado",
      "lat": -33.4819001,
      "lon": -70.6846987,
      "direccion": "Avenida Cerrillos 2050",
      "ciudad": "",
      "nombre_lugar": "Cajero automático",
      "horario": "",
      "acceso": "",
      "fuente": "OpenStreetMap",
      "banco_original_osm": "BancoEstado"
    },
    {
      "id": 3264552066,
      "banco": "BancoEstado",
      "lat": -33.4978862,
      "lon": -70.687735,
      "direccion": "Avenida Central Cardenal Raúl Silva Henríquez 5960",
      "ciudad": "",
      "nombre_lugar": "Cajero Banco Estado",
      "horario": "",
      "acceso": "",
      "fuente": "OpenStreetMap",
      "banco_original_osm": "BancoEstado"
    },
    {
      "id": 3264552069,
      "banco": "Banco de Chile",
      "lat": -33.4790937,
      "lon": -70.6629964,
      "direccion": "Avenida Alcalde Carlos Valdovinos 2020",
      "ciudad": "",
      "nombre_lugar": "Cajero Banco de Chile",
      "horario": "",
      "acceso": "",
      "fuente": "OpenStreetMap",
      "banco_original_osm": "Banco de Chile"
    },
    {
      "id": 3279580768,
      "banco": "Santander",
      "lat": -33.3594217,
      "lon": -70.7449733,
      "direccion": "",
      "ciudad": "",
      "nombre_lugar": "Banco Santander",
      "horario": "",
      "acceso": "",
      "fuente": "OpenStreetMap",
      "banco_original_osm": "Santander"
    },
    {
      "id": 3331801968,
      "banco": "Santander",
      "lat": -33.451926,
      "lon": -70.6643278,
      "direccion": "",
      "ciudad": "",
      "nombre_lugar": "",
      "horario": "",
      "acceso": "",
      "fuente": "OpenStreetMap",
      "banco_original_osm": "Santander"
    },
    {
      "id": 3331801987,
      "banco": "BancoEstado",
      "lat": -33.4485041,
      "lon": -70.6688956,
      "direccion": "",
      "ciudad": "",
      "nombre_lugar": "Banco Estado",
      "horario": "",
      "acceso": "",
      "fuente": "OpenStreetMap",
      "banco_original_osm": "BancoEstado"
    },
    {
      "id": 3331801988,
      "banco": "Banco de Chile",
      "lat": -33.4476259,
      "lon": -70.6647243,
      "direccion": "",
      "ciudad": "",
      "nombre_lugar": "Banco de Chile",
      "horario": "",
      "acceso": "",
      "fuente": "OpenStreetMap",
      "banco_original_osm": "Banco de Chile"
    },
    {
      "id": 3331801989,
      "banco": "BCI",
      "lat": -33.4526105,
      "lon": -70.667219,
      "direccion": "",
      "ciudad": "",
      "nombre_lugar": "",
      "horario": "",
      "acceso": "",
      "fuente": "OpenStreetMap",
      "banco_original_osm": "BCI"
    },
    {
      "id": 3370395894,
      "banco": "Banco de Chile",
      "lat": -33.4394293,
      "lon": -70.6475194,
      "direccion": "",
      "ciudad": "",
      "nombre_lugar": "Banco Edwards",
      "horario": "",
      "acceso": "",
      "fuente": "OpenStreetMap",
      "banco_original_osm": "Banco Edwards"
    },
    {
      "id": 3370401393,
      "banco": "Itaú Corpbanca",
      "lat": -33.4394741,
      "lon": -70.6477447,
      "direccion": "",
      "ciudad": "",
      "nombre_lugar": "Corpbanca",
      "horario": "",
      "acceso": "",
      "fuente": "OpenStreetMap",
      "banco_original_osm": "Corpbanca"
    },
    {
      "id": 3564562624,
      "banco": "Banco de Chile",
      "lat": -33.6347488,
      "lon": -70.5717858,
      "direccion": "",
      "ciudad": "Pirque",
      "nombre_lugar": "Banco de Chile",
      "horario": "",
      "acceso": "",
      "fuente": "OpenStreetMap",
      "banco_original_osm": "Banco de Chile"
    },
    {
      "id": 3629342127,
      "banco": "BancoEstado (Caja Vecina)",
      "lat": -33.5919681,
      "lon": -70.5761743,
      "direccion": "Pasaje Gaugin 2202",
      "ciudad": "Puente Alto",
      "nombre_lugar": "Caja Vecina N° 16545",
      "horario": "",
      "acceso": "",
      "fuente": "OpenStreetMap",
      "banco_original_osm": "Caja Vecina N° 16545"
    },
    {
      "id": 3629343487,
      "banco": "BancoEstado (Caja Vecina)",
      "lat": -33.5890429,
      "lon": -70.5696997,
      "direccion": "Pampa del Tamarugal 2470",
      "ciudad": "Puente Alto",
      "nombre_lugar": "Caja Vecina N°8762",
      "horario": "",
      "acceso": "",
      "fuente": "OpenStreetMap",
      "banco_original_osm": "Caja Vecina N°8762"
    },
    {
      "id": 3629353838,
      "banco": "BancoEstado (Caja Vecina)",
      "lat": -33.5917338,
      "lon": -70.5755853,
      "direccion": "San Hugo 288",
      "ciudad": "Puente Alto",
      "nombre_lugar": "Caja Vecina N° 7737",
      "horario": "",
      "acceso": "",
      "fuente": "OpenStreetMap",
      "banco_original_osm": "Caja Vecina N° 7737"
    },
    {
      "id": 3629358854,
      "banco": "BancoEstado (Caja Vecina)",
      "lat": -33.5890444,
      "lon": -70.5691139,
      "direccion": "Pasaje Salitrera Aurora 2467",
      "ciudad": "Puente Alto",
      "nombre_lugar": "Caja Vecina N°20271",
      "horario": "",
      "acceso": "",
      "fuente": "OpenStreetMap",
      "banco_original_osm": "Caja Vecina N°20271"
    },
    {
      "id": 3629364391,
      "banco": "BancoEstado (Caja Vecina)",
      "lat": -33.5895242,
      "lon": -70.5647299,
      "direccion": "Salar de Ascotán 2391",
      "ciudad": "Puente Alto",
      "nombre_lugar": "Caja Vecina N°13279",
      "horario": "",
      "acceso": "",
      "fuente": "OpenStreetMap",
      "banco_original_osm": "Caja Vecina N°13279"
    },
    {
      "id": 3629374689,
      "banco": "BancoEstado (Caja Vecina)",
      "lat": -33.5893994,
      "lon": -70.5627055,
      "direccion": "Portal Andino 1559",
      "ciudad": "Puente Alto",
      "nombre_lugar": "Caja Vecina N°4535",
      "horario": "",
      "acceso": "",
      "fuente": "OpenStreetMap",
      "banco_original_osm": "Caja Vecina N°4535"
    },
    {
      "id": 3726440126,
      "banco": "Santander",
      "lat": -33.4402723,
      "lon": -70.6564877,
      "direccion": "",
      "ciudad": "",
      "nombre_lugar": "Santander",
      "horario": "",
      "acceso": "",
      "fuente": "OpenStreetMap",
      "banco_original_osm": "Santander"
    },
    {
      "id": 3730701864,
      "banco": "Banco de Chile",
      "lat": -33.4427202,
      "lon": -70.6655575,
      "direccion": "",
      "ciudad": "",
      "nombre_lugar": "",
      "horario": "",
      "acceso": "",
      "fuente": "OpenStreetMap",
      "banco_original_osm": "Banco de Chile"
    },
    {
      "id": 3765729634,
      "banco": "BancoEstado",
      "lat": -33.6183386,
      "lon": -70.6257793,
      "direccion": "Avenida Eyzaguirre 3965",
      "ciudad": "Puente Alto",
      "nombre_lugar": "Banco Estado Express",
      "horario": "",
      "acceso": "",
      "fuente": "OpenStreetMap",
      "banco_original_osm": "BancoEstado"
    },
    {
      "id": 3892811173,
      "banco": "Banco de Chile",
      "lat": -33.47026,
      "lon": -70.6563323,
      "direccion": "",
      "ciudad": "",
      "nombre_lugar": "Banco de Chile",
      "horario": "",
      "acceso": "",
      "fuente": "OpenStreetMap",
      "banco_original_osm": "Banco de Chile"
    },
    {
      "id": 3892811174,
      "banco": "Santander",
      "lat": -33.4721811,
      "lon": -70.6564417,
      "direccion": "",
      "ciudad": "",
      "nombre_lugar": "",
      "horario": "",
      "acceso": "",
      "fuente": "OpenStreetMap",
      "banco_original_osm": "Santander"
    },
    {
      "id": 3948496054,
      "banco": "Banco de Chile",
      "lat": -33.4389265,
      "lon": -70.6687639,
      "direccion": "",
      "ciudad": "",
      "nombre_lugar": "Banco de Chile",
      "horario": "",
      "acceso": "",
      "fuente": "OpenStreetMap",
      "banco_original_osm": "Banco de Chile"
    },
    {
      "id": 3948850910,
      "banco": "Banco de Chile",
      "lat": -33.4339194,
      "lon": -70.6407053,
      "direccion": "",
      "ciudad": "",
      "nombre_lugar": "Banco de Chile",
      "horario": "",
      "acceso": "",
      "fuente": "OpenStreetMap",
      "banco_original_osm": "Banco de Chile"
    },
    {
      "id": 3987112284,
      "banco": "Santander",
      "lat": -33.3767283,
      "lon": -70.5704703,
      "direccion": "Avenida Santa María 6750",
      "ciudad": "Vitacura",
      "nombre_lugar": "Banco Santander",
      "horario": "",
      "acceso": "",
      "fuente": "OpenStreetMap",
      "banco_original_osm": "Santander"
    },
    {
      "id": 3987112293,
      "banco": "BCI",
      "lat": -33.3768081,
      "lon": -70.5708094,
      "direccion": "Avenida Santa María 6750",
      "ciudad": "Vitacura",
      "nombre_lugar": "BCI",
      "horario": "",
      "acceso": "",
      "fuente": "OpenStreetMap",
      "banco_original_osm": "BCI"
    },
    {
      "id": 4039119036,
      "banco": "Santander",
      "lat": -33.4574348,
      "lon": -70.7159577,
      "direccion": "",
      "ciudad": "",
      "nombre_lugar": "",
      "horario": "",
      "acceso": "",
      "fuente": "OpenStreetMap",
      "banco_original_osm": "Santander"
    },
    {
      "id": 4039119570,
      "banco": "Banco de Chile",
      "lat": -33.4575078,
      "lon": -70.7148026,
      "direccion": "",
      "ciudad": "",
      "nombre_lugar": "",
      "horario": "",
      "acceso": "",
      "fuente": "OpenStreetMap",
      "banco_original_osm": "Banco de Chile"
    },
    {
      "id": 4048645339,
      "banco": "Banco de Chile",
      "lat": -33.3762908,
      "lon": -70.5691985,
      "direccion": "Avenida Santa María",
      "ciudad": "Vitacura",
      "nombre_lugar": "Banco de Chile",
      "horario": "",
      "acceso": "",
      "fuente": "OpenStreetMap",
      "banco_original_osm": "Banco de Chile"
    },
    {
      "id": 4332945834,
      "banco": "Santander",
      "lat": -33.4564072,
      "lon": -70.6608607,
      "direccion": "",
      "ciudad": "",
      "nombre_lugar": "Banco Santander",
      "horario": "",
      "acceso": "",
      "fuente": "OpenStreetMap",
      "banco_original_osm": "Santander"
    },
    {
      "id": 4332945835,
      "banco": "Banco de Chile",
      "lat": -33.4577298,
      "lon": -70.6624529,
      "direccion": "",
      "ciudad": "",
      "nombre_lugar": "Banco de Chile",
      "horario": "",
      "acceso": "",
      "fuente": "OpenStreetMap",
      "banco_original_osm": "Banco de Chile"
    },
    {
      "id": 4386476189,
      "banco": "BCI",
      "lat": -33.4365745,
      "lon": -70.6316036,
      "direccion": "",
      "ciudad": "",
      "nombre_lugar": "BCI",
      "horario": "",
      "acceso": "",
      "fuente": "OpenStreetMap",
      "banco_original_osm": "BCI"
    },
    {
      "id": 4393973890,
      "banco": "BancoEstado",
      "lat": -33.4747826,
      "lon": -70.6481825,
      "direccion": "",
      "ciudad": "",
      "nombre_lugar": "Banco Estado",
      "horario": "",
      "acceso": "",
      "fuente": "OpenStreetMap",
      "banco_original_osm": "BancoEstado"
    },
    {
      "id": 4404966491,
      "banco": "Banco de Chile",
      "lat": -33.440293,
      "lon": -70.6565611,
      "direccion": "",
      "ciudad": "",
      "nombre_lugar": "Banco de Chile",
      "horario": "",
      "acceso": "",
      "fuente": "OpenStreetMap",
      "banco_original_osm": "Banco de Chile"
    },
    {
      "id": 4415864489,
      "banco": "BancoEstado",
      "lat": -33.4544705,
      "lon": -70.6036899,
      "direccion": "Avenida Irarrázaval",
      "ciudad": "",
      "nombre_lugar": "Banco Estado",
      "horario": "24/7",
      "acceso": "",
      "fuente": "OpenStreetMap",
      "banco_original_osm": "BancoEstado"
    },
    {
      "id": 4415869989,
      "banco": "Banco de Chile",
      "lat": -33.4549411,
      "lon": -70.5992481,
      "direccion": "",
      "ciudad": "",
      "nombre_lugar": "Banco de Chile",
      "horario": "24/7",
      "acceso": "",
      "fuente": "OpenStreetMap",
      "banco_original_osm": "Banco de Chile"
    },
    {
      "id": 4424385986,
      "banco": "Scotiabank",
      "lat": -33.4180104,
      "lon": -70.6001185,
      "direccion": "El Bosque Central 2827",
      "ciudad": "Las Condes",
      "nombre_lugar": "Scotiabank",
      "horario": "",
      "acceso": "",
      "fuente": "OpenStreetMap",
      "banco_original_osm": "Scotiabank"
    },
    {
      "id": 4425981473,
      "banco": "Santander",
      "lat": -33.4186142,
      "lon": -70.6019357,
      "direccion": "Avenida Providencia",
      "ciudad": "Providencia",
      "nombre_lugar": "Banco Santander",
      "horario": "",
      "acceso": "",
      "fuente": "OpenStreetMap",
      "banco_original_osm": "Santander"
    },
    {
      "id": 4433420085,
      "banco": "Scotiabank",
      "lat": -33.3535061,
      "lon": -70.5215713,
      "direccion": "",
      "ciudad": "",
      "nombre_lugar": "Scotiabank",
      "horario": "",
      "acceso": "",
      "fuente": "OpenStreetMap",
      "banco_original_osm": "Scotiabank"
    },
    {
      "id": 4436425165,
      "banco": "Itaú Corpbanca",
      "lat": -33.517242,
      "lon": -70.596117,
      "direccion": "Avenida Vicuña Mackenna Oriente 7110",
      "ciudad": "La Florida",
      "nombre_lugar": "Itaú",
      "horario": "",
      "acceso": "",
      "fuente": "OpenStreetMap",
      "banco_original_osm": "Itaú"
    },
    {
      "id": 4443727189,
      "banco": "Banco de Chile",
      "lat": -33.4416906,
      "lon": -70.6487898,
      "direccion": "Moneda",
      "ciudad": "Santiago",
      "nombre_lugar": "Banco de Chile",
      "horario": "",
      "acceso": "",
      "fuente": "OpenStreetMap",
      "banco_original_osm": "Banco de Chile"
    },
    {
      "id": 4445050973,
      "banco": "Santander",
      "lat": -33.4555412,
      "lon": -70.5924411,
      "direccion": "Avenida Irarrázaval 3675",
      "ciudad": "Ñuñoa",
      "nombre_lugar": "Banco Santander",
      "horario": "mo-th 09:00-17:30; Fr 09:00-14:00",
      "acceso": "",
      "fuente": "OpenStreetMap",
      "banco_original_osm": "Santander"
    },
    {
      "id": 4446303887,
      "banco": "Itaú Corpbanca",
      "lat": -33.4415996,
      "lon": -70.647749,
      "direccion": "Moneda 799",
      "ciudad": "Santiago",
      "nombre_lugar": "Itaú",
      "horario": "",
      "acceso": "",
      "fuente": "OpenStreetMap",
      "banco_original_osm": "Itaú"
    },
    {
      "id": 4446303888,
      "banco": "Banco de Chile",
      "lat": -33.4416866,
      "lon": -70.6487355,
      "direccion": "Moneda 843",
      "ciudad": "Santiago",
      "nombre_lugar": "Banco de Chile",
      "horario": "",
      "acceso": "",
      "fuente": "OpenStreetMap",
      "banco_original_osm": "Banco de Chile"
    },
    {
      "id": 4452395347,
      "banco": "BancoEstado",
      "lat": -33.4144149,
      "lon": -70.6039572,
      "direccion": "Avenida Vitacura 2814",
      "ciudad": "Las Condes",
      "nombre_lugar": "Banco Estado",
      "horario": "Mo-Fr 08:00-19:00, Sa 09:00-17:00",
      "acceso": "",
      "fuente": "OpenStreetMap",
      "banco_original_osm": "BancoEstado"
    },
    {
      "id": 4453690089,
      "banco": "BancoEstado",
      "lat": -33.4428784,
      "lon": -70.6553095,
      "direccion": "",
      "ciudad": "",
      "nombre_lugar": "Banco Estado",
      "horario": "",
      "acceso": "",
      "fuente": "OpenStreetMap",
      "banco_original_osm": "BancoEstado"
    },
    {
      "id": 4455419313,
      "banco": "BancoEstado",
      "lat": -33.4437324,
      "lon": -70.6521926,
      "direccion": "",
      "ciudad": "",
      "nombre_lugar": "Banco Estado",
      "horario": "",
      "acceso": "",
      "fuente": "OpenStreetMap",
      "banco_original_osm": "BancoEstado"
    },
    {
      "id": 4456703990,
      "banco": "BCI",
      "lat": -33.4416847,
      "lon": -70.6563244,
      "direccion": "",
      "ciudad": "",
      "nombre_lugar": "",
      "horario": "",
      "acceso": "",
      "fuente": "OpenStreetMap",
      "banco_original_osm": "BCI"
    },
    {
      "id": 4456948891,
      "banco": "BancoEstado",
      "lat": -33.510901,
      "lon": -70.7597043,
      "direccion": "",
      "ciudad": "",
      "nombre_lugar": "Banco Estado",
      "horario": "",
      "acceso": "",
      "fuente": "OpenStreetMap",
      "banco_original_osm": "BancoEstado"
    },
    {
      "id": 4456948892,
      "banco": "BCI",
      "lat": -33.5109072,
      "lon": -70.7598116,
      "direccion": "",
      "ciudad": "",
      "nombre_lugar": "BCI",
      "horario": "",
      "acceso": "",
      "fuente": "OpenStreetMap",
      "banco_original_osm": "BCI"
    },
    {
      "id": 4458228678,
      "banco": "BancoEstado",
      "lat": -33.5218655,
      "lon": -70.6003584,
      "direccion": "Avenida Vicuña Mackenna Poniente",
      "ciudad": "",
      "nombre_lugar": "",
      "horario": "",
      "acceso": "",
      "fuente": "OpenStreetMap",
      "banco_original_osm": "BancoEstado"
    },
    {
      "id": 4489115789,
      "banco": "BancoEstado",
      "lat": -33.4390288,
      "lon": -70.6540591,
      "direccion": "",
      "ciudad": "",
      "nombre_lugar": "",
      "horario": "",
      "acceso": "",
      "fuente": "OpenStreetMap",
      "banco_original_osm": "BancoEstado"
    },
    {
      "id": 4491070890,
      "banco": "BancoEstado",
      "lat": -33.4389574,
      "lon": -70.6543824,
      "direccion": "",
      "ciudad": "",
      "nombre_lugar": "Banco Estado",
      "horario": "",
      "acceso": "",
      "fuente": "OpenStreetMap",
      "banco_original_osm": "BancoEstado"
    },
    {
      "id": 4515433390,
      "banco": "Banco Falabella",
      "lat": -33.4399284,
      "lon": -70.6545292,
      "direccion": "",
      "ciudad": "",
      "nombre_lugar": "Banco Falabella",
      "horario": "",
      "acceso": "",
      "fuente": "OpenStreetMap",
      "banco_original_osm": "Banco Falabella"
    },
    {
      "id": 4548727608,
      "banco": "BancoEstado (Caja Vecina)",
      "lat": -33.5938467,
      "lon": -70.57251,
      "direccion": "Avenida Las Nieves Oriente",
      "ciudad": "Santiago",
      "nombre_lugar": "Caja Vecina",
      "horario": "",
      "acceso": "",
      "fuente": "OpenStreetMap",
      "banco_original_osm": "Caja Vecina"
    },
    {
      "id": 4589827805,
      "banco": "Santander",
      "lat": -33.442735,
      "lon": -70.5957972,
      "direccion": "",
      "ciudad": "",
      "nombre_lugar": "",
      "horario": "",
      "acceso": "",
      "fuente": "OpenStreetMap",
      "banco_original_osm": "Santander"
    },
    {
      "id": 4777860805,
      "banco": "Banco Falabella",
      "lat": -33.4535321,
      "lon": -70.6523693,
      "direccion": "",
      "ciudad": "",
      "nombre_lugar": "",
      "horario": "",
      "acceso": "",
      "fuente": "OpenStreetMap",
      "banco_original_osm": "Banco Falabella"
    },
    {
      "id": 4860786796,
      "banco": "BCI",
      "lat": -33.4913588,
      "lon": -70.6668969,
      "direccion": "Avenida Club Hípico 4660",
      "ciudad": "Pedro Aguirre Cerda",
      "nombre_lugar": "Cajero BCI",
      "horario": "",
      "acceso": "",
      "fuente": "OpenStreetMap",
      "banco_original_osm": "BCI"
    },
    {
      "id": 5031322221,
      "banco": "BancoEstado (Caja Vecina)",
      "lat": -33.4718703,
      "lon": -70.5517594,
      "direccion": "Tagua Tagua",
      "ciudad": "",
      "nombre_lugar": "BancoEstado Caja Vecina",
      "horario": "",
      "acceso": "",
      "fuente": "OpenStreetMap",
      "banco_original_osm": "BancoEstado"
    },
    {
      "id": 5095561621,
      "banco": "BancoEstado (Caja Vecina)",
      "lat": -33.4703011,
      "lon": -70.5562086,
      "direccion": "Andrea López Zarate",
      "ciudad": "",
      "nombre_lugar": "Caja Vecina BancoEstado",
      "horario": "",
      "acceso": "",
      "fuente": "OpenStreetMap",
      "banco_original_osm": "BancoEstado"
    },
    {
      "id": 5095629421,
      "banco": "BancoEstado (Caja Vecina)",
      "lat": -33.4686372,
      "lon": -70.5550895,
      "direccion": "Avenida Oriental 7335",
      "ciudad": "",
      "nombre_lugar": "Caja Vecina BancoEstado",
      "horario": "",
      "acceso": "",
      "fuente": "OpenStreetMap",
      "banco_original_osm": "BancoEstado"
    },
    {
      "id": 5095629621,
      "banco": "BancoEstado (Caja Vecina)",
      "lat": -33.4686488,
      "lon": -70.5525561,
      "direccion": "",
      "ciudad": "",
      "nombre_lugar": "Caja Vecina BancoEstado",
      "horario": "",
      "acceso": "",
      "fuente": "OpenStreetMap",
      "banco_original_osm": "BancoEstado"
    },
    {
      "id": 5117551021,
      "banco": "BancoEstado",
      "lat": -33.4337898,
      "lon": -70.6529956,
      "direccion": "Bandera 846",
      "ciudad": "Santiago",
      "nombre_lugar": "Banco Estado",
      "horario": "",
      "acceso": "",
      "fuente": "OpenStreetMap",
      "banco_original_osm": "BancoEstado"
    },
    {
      "id": 5124483325,
      "banco": "BancoEstado",
      "lat": -33.4417511,
      "lon": -70.6474286,
      "direccion": "",
      "ciudad": "",
      "nombre_lugar": "Banco Estado",
      "horario": "",
      "acceso": "",
      "fuente": "OpenStreetMap",
      "banco_original_osm": "BancoEstado"
    },
    {
      "id": 5129510035,
      "banco": "Banco de Crédito e Inversiones",
      "lat": -33.6304219,
      "lon": -70.7610822,
      "direccion": "Avenida Calera de Tango",
      "ciudad": "Calera de Tango",
      "nombre_lugar": "BCI",
      "horario": "",
      "acceso": "",
      "fuente": "OpenStreetMap",
      "banco_original_osm": "Banco de Crédito e Inversiones"
    },
    {
      "id": 5185078965,
      "banco": "BancoEstado",
      "lat": -33.4449232,
      "lon": -70.7446376,
      "direccion": "",
      "ciudad": "",
      "nombre_lugar": "Banco Estado",
      "horario": "Mo-Fr 09:00-14:00",
      "acceso": "",
      "fuente": "OpenStreetMap",
      "banco_original_osm": "BancoEstado"
    },
    {
      "id": 5251206653,
      "banco": "Banco de Chile",
      "lat": -33.485945,
      "lon": -70.651009,
      "direccion": "Llano Subercaseaux 3519",
      "ciudad": "",
      "nombre_lugar": "",
      "horario": "",
      "acceso": "",
      "fuente": "OpenStreetMap",
      "banco_original_osm": "Banco de Chile"
    },
    {
      "id": 5311487809,
      "banco": "Banco de Chile",
      "lat": -33.3999135,
      "lon": -70.5934403,
      "direccion": "Candelaria Goyenechea 3868",
      "ciudad": "Vitacura",
      "nombre_lugar": "Banco de Chile",
      "horario": "Mo-Fr 09:00-14:00",
      "acceso": "",
      "fuente": "OpenStreetMap",
      "banco_original_osm": "Banco de Chile"
    },
    {
      "id": 5314850794,
      "banco": "BancoEstado (Caja Vecina)",
      "lat": -33.5412951,
      "lon": -70.7864593,
      "direccion": "René Olivares Becerra",
      "ciudad": "Maipú",
      "nombre_lugar": "",
      "horario": "",
      "acceso": "",
      "fuente": "OpenStreetMap",
      "banco_original_osm": "Caja Vecina"
    },
    {
      "id": 5325445083,
      "banco": "Banco de Chile",
      "lat": -33.4038843,
      "lon": -70.5725537,
      "direccion": "",
      "ciudad": "",
      "nombre_lugar": "Banco de Chile",
      "horario": "",
      "acceso": "",
      "fuente": "OpenStreetMap",
      "banco_original_osm": "Banco de Chile"
    },
    {
      "id": 5436312085,
      "banco": "Santander",
      "lat": -33.3828496,
      "lon": -70.7301215,
      "direccion": "",
      "ciudad": "",
      "nombre_lugar": "Banco Santander",
      "horario": "",
      "acceso": "",
      "fuente": "OpenStreetMap",
      "banco_original_osm": "Santander"
    },
    {
      "id": 5586822323,
      "banco": "Santander",
      "lat": -33.3964001,
      "lon": -70.790417,
      "direccion": "Armando Cortínez Oriente 1704",
      "ciudad": "",
      "nombre_lugar": "",
      "horario": "",
      "acceso": "",
      "fuente": "OpenStreetMap",
      "banco_original_osm": "Santander"
    },
    {
      "id": 5586822324,
      "banco": "Santander",
      "lat": -33.3969171,
      "lon": -70.7950762,
      "direccion": "Armando Cortínez Oriente 1704",
      "ciudad": "",
      "nombre_lugar": "Santander",
      "horario": "",
      "acceso": "",
      "fuente": "OpenStreetMap",
      "banco_original_osm": "Santander"
    },
    {
      "id": 5813430430,
      "banco": "BCI",
      "lat": -33.4397115,
      "lon": -70.6509165,
      "direccion": "",
      "ciudad": "",
      "nombre_lugar": "BCI",
      "horario": "",
      "acceso": "",
      "fuente": "OpenStreetMap",
      "banco_original_osm": "BCI"
    },
    {
      "id": 5908995427,
      "banco": "Banco de Chile",
      "lat": -33.4882993,
      "lon": -70.5783379,
      "direccion": "",
      "ciudad": "Peñalolen",
      "nombre_lugar": "Banco de Chile",
      "horario": "",
      "acceso": "",
      "fuente": "OpenStreetMap",
      "banco_original_osm": "Banco de Chile"
    },
    {
      "id": 5912907638,
      "banco": "Scotiabank",
      "lat": -33.4882971,
      "lon": -70.5786271,
      "direccion": "",
      "ciudad": "Peñalolen",
      "nombre_lugar": "Scotiabank",
      "horario": "",
      "acceso": "",
      "fuente": "OpenStreetMap",
      "banco_original_osm": "Scotiabank"
    },
    {
      "id": 5912907639,
      "banco": "Santander",
      "lat": -33.4883649,
      "lon": -70.5787594,
      "direccion": "",
      "ciudad": "Peñalolen",
      "nombre_lugar": "Banco Santander",
      "horario": "",
      "acceso": "",
      "fuente": "OpenStreetMap",
      "banco_original_osm": "Santander"
    },
    {
      "id": 6379531173,
      "banco": "BancoEstado (Caja Vecina)",
      "lat": -33.4010494,
      "lon": -70.6424652,
      "direccion": "",
      "ciudad": "",
      "nombre_lugar": "Caja Vecina",
      "horario": "",
      "acceso": "",
      "fuente": "OpenStreetMap",
      "banco_original_osm": "Caja Vecina"
    },
    {
      "id": 6441110551,
      "banco": "BancoEstado",
      "lat": -33.8549728,
      "lon": -70.7634906,
      "direccion": "",
      "ciudad": "",
      "nombre_lugar": "",
      "horario": "",
      "acceso": "",
      "fuente": "OpenStreetMap",
      "banco_original_osm": "BancoEstado"
    },
    {
      "id": 6755325016,
      "banco": "Itaú Corpbanca",
      "lat": -33.2771613,
      "lon": -70.6278825,
      "direccion": "",
      "ciudad": "",
      "nombre_lugar": "Itaú",
      "horario": "",
      "acceso": "",
      "fuente": "OpenStreetMap",
      "banco_original_osm": "Itaú"
    },
    {
      "id": 6755325025,
      "banco": "Santander",
      "lat": -33.2771808,
      "lon": -70.6272361,
      "direccion": "",
      "ciudad": "",
      "nombre_lugar": "Banco Santander",
      "horario": "",
      "acceso": "",
      "fuente": "OpenStreetMap",
      "banco_original_osm": "Santander"
    },
    {
      "id": 6967098912,
      "banco": "Banco de Chile",
      "lat": -33.415114,
      "lon": -70.5406024,
      "direccion": "Avenida Padre Hurtado Sur 875",
      "ciudad": "Las Condes",
      "nombre_lugar": "Banco de Chile",
      "horario": "",
      "acceso": "",
      "fuente": "OpenStreetMap",
      "banco_original_osm": "Banco de Chile"
    },
    {
      "id": 7083151830,
      "banco": "Santander",
      "lat": -33.3914152,
      "lon": -70.5008324,
      "direccion": "",
      "ciudad": "",
      "nombre_lugar": "",
      "horario": "",
      "acceso": "",
      "fuente": "OpenStreetMap",
      "banco_original_osm": "Santander"
    },
    {
      "id": 7267320149,
      "banco": "Banco de Chile",
      "lat": -33.4540269,
      "lon": -70.6883361,
      "direccion": "",
      "ciudad": "",
      "nombre_lugar": "Banco de Chile",
      "horario": "",
      "acceso": "",
      "fuente": "OpenStreetMap",
      "banco_original_osm": "Banco de Chile"
    },
    {
      "id": 7623163728,
      "banco": "Santander",
      "lat": -33.4311485,
      "lon": -70.6272129,
      "direccion": "",
      "ciudad": "",
      "nombre_lugar": "Banco Santander",
      "horario": "",
      "acceso": "",
      "fuente": "OpenStreetMap",
      "banco_original_osm": "Santander"
    },
    {
      "id": 7972052956,
      "banco": "Santander",
      "lat": -33.4932704,
      "lon": -70.6818493,
      "direccion": "",
      "ciudad": "",
      "nombre_lugar": "Cajero Santander",
      "horario": "",
      "acceso": "",
      "fuente": "OpenStreetMap",
      "banco_original_osm": "Santander"
    },
    {
      "id": 8311491619,
      "banco": "BCI",
      "lat": -33.603493,
      "lon": -70.8517984,
      "direccion": "",
      "ciudad": "",
      "nombre_lugar": "",
      "horario": "Mo-Su 09:00-18:00",
      "acceso": "",
      "fuente": "OpenStreetMap",
      "banco_original_osm": "BCI"
    },
    {
      "id": 8438762410,
      "banco": "Banco de Chile",
      "lat": -33.4768911,
      "lon": -70.642263,
      "direccion": "",
      "ciudad": "",
      "nombre_lugar": "",
      "horario": "",
      "acceso": "",
      "fuente": "OpenStreetMap",
      "banco_original_osm": "Banco de Chile"
    },
    {
      "id": 8439256009,
      "banco": "Banco de Chile",
      "lat": -33.4761547,
      "lon": -70.6493542,
      "direccion": "",
      "ciudad": "",
      "nombre_lugar": "Banco de Chile",
      "horario": "",
      "acceso": "",
      "fuente": "OpenStreetMap",
      "banco_original_osm": "Banco de Chile"
    },
    {
      "id": 9057780085,
      "banco": "BancoEstado",
      "lat": -33.553652,
      "lon": -70.6759873,
      "direccion": "Gran Avenida José Miguel Carrera 10375",
      "ciudad": "El Bosque",
      "nombre_lugar": "",
      "horario": "",
      "acceso": "",
      "fuente": "OpenStreetMap",
      "banco_original_osm": "BancoEstado"
    },
    {
      "id": 9118592074,
      "banco": "Santander",
      "lat": -33.594312,
      "lon": -70.6978863,
      "direccion": "",
      "ciudad": "",
      "nombre_lugar": "Santander",
      "horario": "",
      "acceso": "",
      "fuente": "OpenStreetMap",
      "banco_original_osm": "Santander"
    },
    {
      "id": 9136377810,
      "banco": "Santander",
      "lat": -33.6329854,
      "lon": -70.7050876,
      "direccion": "",
      "ciudad": "",
      "nombre_lugar": "Santander",
      "horario": "",
      "acceso": "",
      "fuente": "OpenStreetMap",
      "banco_original_osm": "Santander"
    },
    {
      "id": 9136377811,
      "banco": "Banco de Chile",
      "lat": -33.6330982,
      "lon": -70.7078955,
      "direccion": "Avenida Presidente Jorge Alessandri Rodríguez 20040",
      "ciudad": "San Bernardo",
      "nombre_lugar": "Banco de Chile",
      "horario": "",
      "acceso": "",
      "fuente": "OpenStreetMap",
      "banco_original_osm": "Banco de Chile"
    },
    {
      "id": 9136393548,
      "banco": "Banco Falabella",
      "lat": -33.6319662,
      "lon": -70.710753,
      "direccion": "Avenida Presidente Jorge Alessandri Rodríguez 20040",
      "ciudad": "San Bernardo",
      "nombre_lugar": "Banco Falabella",
      "horario": "",
      "acceso": "",
      "fuente": "OpenStreetMap",
      "banco_original_osm": "Banco Falabella"
    },
    {
      "id": 9146026731,
      "banco": "Santander",
      "lat": -33.4777699,
      "lon": -70.6807155,
      "direccion": "",
      "ciudad": "",
      "nombre_lugar": "Cajero Santander",
      "horario": "",
      "acceso": "",
      "fuente": "OpenStreetMap",
      "banco_original_osm": "Santander"
    },
    {
      "id": 9528328337,
      "banco": "Scotiabank",
      "lat": -33.4157011,
      "lon": -70.5922444,
      "direccion": "Avenida Apoquindo 3650",
      "ciudad": "Las Condes",
      "nombre_lugar": "Scotiabank",
      "horario": "Mo-Fr 09:00-14:00",
      "acceso": "",
      "fuente": "OpenStreetMap",
      "banco_original_osm": "Scotiabank"
    },
    {
      "id": 9630709562,
      "banco": "Santander",
      "lat": -33.3998843,
      "lon": -70.7953813,
      "direccion": "Jean Mermoz 2150",
      "ciudad": "Pudahuel",
      "nombre_lugar": "",
      "horario": "",
      "acceso": "",
      "fuente": "OpenStreetMap",
      "banco_original_osm": "Santander"
    },
    {
      "id": 9687118105,
      "banco": "Santander",
      "lat": -33.538548,
      "lon": -70.6642522,
      "direccion": "Avenida Américo Vespucio 33",
      "ciudad": "",
      "nombre_lugar": "",
      "horario": "",
      "acceso": "",
      "fuente": "OpenStreetMap",
      "banco_original_osm": "Santander"
    },
    {
      "id": 9689133680,
      "banco": "BancoEstado",
      "lat": -33.5460201,
      "lon": -70.6678437,
      "direccion": "",
      "ciudad": "",
      "nombre_lugar": "",
      "horario": "",
      "acceso": "",
      "fuente": "OpenStreetMap",
      "banco_original_osm": "BancoEstado"
    },
    {
      "id": 9859607652,
      "banco": "Santander",
      "lat": -33.4001215,
      "lon": -70.7945359,
      "direccion": "Jean Mermoz 2150",
      "ciudad": "Pudahuel",
      "nombre_lugar": "Banco Santander",
      "horario": "",
      "acceso": "",
      "fuente": "OpenStreetMap",
      "banco_original_osm": "Santander"
    },
    {
      "id": 9859607675,
      "banco": "Santander",
      "lat": -33.4000009,
      "lon": -70.7932093,
      "direccion": "Jean Mermoz 2150",
      "ciudad": "Pudahuel",
      "nombre_lugar": "Santander",
      "horario": "",
      "acceso": "",
      "fuente": "OpenStreetMap",
      "banco_original_osm": "Santander"
    },
    {
      "id": 9859607676,
      "banco": "Santander",
      "lat": -33.4000084,
      "lon": -70.7938633,
      "direccion": "Jean Mermoz 2150",
      "ciudad": "Pudahuel",
      "nombre_lugar": "Santander",
      "horario": "",
      "acceso": "",
      "fuente": "OpenStreetMap",
      "banco_original_osm": "Santander"
    },
    {
      "id": 9859607688,
      "banco": "Santander",
      "lat": -33.4001176,
      "lon": -70.7944145,
      "direccion": "Jean Mermoz 2150",
      "ciudad": "Pudahuel",
      "nombre_lugar": "Banco Santander",
      "horario": "",
      "acceso": "",
      "fuente": "OpenStreetMap",
      "banco_original_osm": "Santander"
    },
    {
      "id": 10142073010,
      "banco": "BancoEstado",
      "lat": -33.4286935,
      "lon": -70.5746138,
      "direccion": "",
      "ciudad": "",
      "nombre_lugar": "",
      "horario": "",
      "acceso": "",
      "fuente": "OpenStreetMap",
      "banco_original_osm": "BancoEstado"
    },
    {
      "id": 10582091031,
      "banco": "Banco Falabella",
      "lat": -33.5199191,
      "lon": -70.5956307,
      "direccion": "",
      "ciudad": "",
      "nombre_lugar": "",
      "horario": "",
      "acceso": "",
      "fuente": "OpenStreetMap",
      "banco_original_osm": "Banco Falabella"
    },
    {
      "id": 10735958205,
      "banco": "BancoEstado",
      "lat": -33.5849966,
      "lon": -70.6282816,
      "direccion": "",
      "ciudad": "",
      "nombre_lugar": "",
      "horario": "",
      "acceso": "",
      "fuente": "OpenStreetMap",
      "banco_original_osm": "BancoEstado"
    },
    {
      "id": 10757995346,
      "banco": "Santander",
      "lat": -33.451762,
      "lon": -70.6792947,
      "direccion": "",
      "ciudad": "",
      "nombre_lugar": "",
      "horario": "",
      "acceso": "",
      "fuente": "OpenStreetMap",
      "banco_original_osm": "Santander"
    },
    {
      "id": 10774289749,
      "banco": "Banco Falabella",
      "lat": -33.5170865,
      "lon": -70.7165212,
      "direccion": "Avenida Américo Vespucio 1501",
      "ciudad": "",
      "nombre_lugar": "",
      "horario": "",
      "acceso": "",
      "fuente": "OpenStreetMap",
      "banco_original_osm": "Banco Falabella"
    },
    {
      "id": 10774289779,
      "banco": "Santander",
      "lat": -33.5165174,
      "lon": -70.7176678,
      "direccion": "Avenida Américo Vespucio 1501",
      "ciudad": "",
      "nombre_lugar": "",
      "horario": "",
      "acceso": "",
      "fuente": "OpenStreetMap",
      "banco_original_osm": "Santander"
    },
    {
      "id": 10820350159,
      "banco": "BancoEstado",
      "lat": -33.631713,
      "lon": -70.7108099,
      "direccion": "Avenida Presidente Jorge Alessandri Rodríguez 20040",
      "ciudad": "San Bernardo",
      "nombre_lugar": "",
      "horario": "",
      "acceso": "",
      "fuente": "OpenStreetMap",
      "banco_original_osm": "BancoEstado"
    },
    {
      "id": 10820350166,
      "banco": "Santander",
      "lat": -33.6326531,
      "lon": -70.7095145,
      "direccion": "Avenida Presidente Jorge Alessandri Rodríguez 20040",
      "ciudad": "San Bernardo",
      "nombre_lugar": "",
      "horario": "",
      "acceso": "",
      "fuente": "OpenStreetMap",
      "banco_original_osm": "Santander"
    },
    {
      "id": 10822849635,
      "banco": "Santander",
      "lat": -33.4532351,
      "lon": -70.6863557,
      "direccion": "Avenida Libertador Bernardo O'Higgins 3750",
      "ciudad": "",
      "nombre_lugar": "",
      "horario": "",
      "acceso": "",
      "fuente": "OpenStreetMap",
      "banco_original_osm": "Santander"
    },
    {
      "id": 10823491964,
      "banco": "Banco Internacional",
      "lat": -33.3989647,
      "lon": -70.5976504,
      "direccion": "",
      "ciudad": "",
      "nombre_lugar": "Banco Internacional",
      "horario": "",
      "acceso": "",
      "fuente": "OpenStreetMap",
      "banco_original_osm": "Banco Internacional"
    },
    {
      "id": 10838091161,
      "banco": "Banco Falabella",
      "lat": -33.5398079,
      "lon": -70.6653155,
      "direccion": "",
      "ciudad": "",
      "nombre_lugar": "",
      "horario": "",
      "acceso": "",
      "fuente": "OpenStreetMap",
      "banco_original_osm": "Banco Falabella"
    },
    {
      "id": 10972077399,
      "banco": "Banco de Chile",
      "lat": -33.4887241,
      "lon": -70.6512157,
      "direccion": "",
      "ciudad": "",
      "nombre_lugar": "",
      "horario": "",
      "acceso": "",
      "fuente": "OpenStreetMap",
      "banco_original_osm": "Banco de Chile"
    },
    {
      "id": 10988286218,
      "banco": "Banco de Chile",
      "lat": -33.4141622,
      "lon": -70.6031197,
      "direccion": "",
      "ciudad": "",
      "nombre_lugar": "",
      "horario": "",
      "acceso": "",
      "fuente": "OpenStreetMap",
      "banco_original_osm": "Citibank"
    },
    {
      "id": 11011187893,
      "banco": "Banco de Chile",
      "lat": -33.4916189,
      "lon": -70.6674878,
      "direccion": "Avenida Club Hípico 4676",
      "ciudad": "",
      "nombre_lugar": "Cajero Banco de Chile",
      "horario": "",
      "acceso": "",
      "fuente": "OpenStreetMap",
      "banco_original_osm": "Banco de Chile"
    },
    {
      "id": 11014502332,
      "banco": "Santander",
      "lat": -33.4128078,
      "lon": -70.6034962,
      "direccion": "Avenida Vitacura 2878",
      "ciudad": "Vitacura",
      "nombre_lugar": "Banco Santander",
      "horario": "Mo-Th 09:00-14:00,15:30-17:30; Fr 09:00-14:00; Sa-Su off",
      "acceso": "",
      "fuente": "OpenStreetMap",
      "banco_original_osm": "Santander"
    },
    {
      "id": 11048502494,
      "banco": "BCI",
      "lat": -33.5939392,
      "lon": -70.7065654,
      "direccion": "",
      "ciudad": "",
      "nombre_lugar": "",
      "horario": "",
      "acceso": "",
      "fuente": "OpenStreetMap",
      "banco_original_osm": "BCI"
    },
    {
      "id": 11081483182,
      "banco": "Redbanc (compartido)",
      "lat": -33.3704078,
      "lon": -70.6717943,
      "direccion": "",
      "ciudad": "",
      "nombre_lugar": "",
      "horario": "",
      "acceso": "",
      "fuente": "OpenStreetMap",
      "banco_original_osm": "Redbanc (compartido)"
    },
    {
      "id": 11173349324,
      "banco": "BancoEstado",
      "lat": -33.5127679,
      "lon": -70.656547,
      "direccion": "",
      "ciudad": "",
      "nombre_lugar": "",
      "horario": "",
      "acceso": "",
      "fuente": "OpenStreetMap",
      "banco_original_osm": "BancoEstado"
    },
    {
      "id": 11184704352,
      "banco": "BancoEstado",
      "lat": -33.5097997,
      "lon": -70.7567207,
      "direccion": "",
      "ciudad": "Maipú",
      "nombre_lugar": "Banco Estado Express",
      "horario": "",
      "acceso": "",
      "fuente": "OpenStreetMap",
      "banco_original_osm": "BancoEstado"
    },
    {
      "id": 11256190275,
      "banco": "BancoEstado",
      "lat": -33.5978028,
      "lon": -70.6998154,
      "direccion": "",
      "ciudad": "",
      "nombre_lugar": "",
      "horario": "",
      "acceso": "",
      "fuente": "OpenStreetMap",
      "banco_original_osm": "BancoEstado"
    },
    {
      "id": 11287161600,
      "banco": "Santander",
      "lat": -33.3965945,
      "lon": -70.7918883,
      "direccion": "Armando Cortínez Oriente 1704",
      "ciudad": "",
      "nombre_lugar": "",
      "horario": "",
      "acceso": "",
      "fuente": "OpenStreetMap",
      "banco_original_osm": "Santander"
    },
    {
      "id": 11287161603,
      "banco": "Santander",
      "lat": -33.3969125,
      "lon": -70.7928888,
      "direccion": "Armando Cortínez Oriente 1704",
      "ciudad": "",
      "nombre_lugar": "",
      "horario": "",
      "acceso": "",
      "fuente": "OpenStreetMap",
      "banco_original_osm": "Santander"
    },
    {
      "id": 11350279738,
      "banco": "BancoEstado",
      "lat": -33.548042,
      "lon": -70.6698389,
      "direccion": "",
      "ciudad": "",
      "nombre_lugar": "",
      "horario": "",
      "acceso": "",
      "fuente": "OpenStreetMap",
      "banco_original_osm": "BancoEstado"
    },
    {
      "id": 11350279807,
      "banco": "Banco de Chile",
      "lat": -33.5421823,
      "lon": -70.6652126,
      "direccion": "",
      "ciudad": "",
      "nombre_lugar": "",
      "horario": "",
      "acceso": "",
      "fuente": "OpenStreetMap",
      "banco_original_osm": "Banco de Chile"
    },
    {
      "id": 11361132796,
      "banco": "BancoEstado",
      "lat": -33.5827081,
      "lon": -70.6765289,
      "direccion": "",
      "ciudad": "",
      "nombre_lugar": "Cajero Banco Estado",
      "horario": "",
      "acceso": "",
      "fuente": "OpenStreetMap",
      "banco_original_osm": "BancoEstado"
    },
    {
      "id": 11369383587,
      "banco": "BancoEstado",
      "lat": -33.4777241,
      "lon": -70.6810798,
      "direccion": "",
      "ciudad": "",
      "nombre_lugar": "Cajero Banco Estado",
      "horario": "",
      "acceso": "",
      "fuente": "OpenStreetMap",
      "banco_original_osm": "BancoEstado"
    },
    {
      "id": 11369391976,
      "banco": "BancoEstado",
      "lat": -33.4784126,
      "lon": -70.6650047,
      "direccion": "",
      "ciudad": "",
      "nombre_lugar": "Cajero Banco Estado",
      "horario": "",
      "acceso": "",
      "fuente": "OpenStreetMap",
      "banco_original_osm": "BancoEstado"
    },
    {
      "id": 11369969913,
      "banco": "BancoEstado",
      "lat": -33.5170536,
      "lon": -70.6589991,
      "direccion": "",
      "ciudad": "",
      "nombre_lugar": "",
      "horario": "",
      "acceso": "",
      "fuente": "OpenStreetMap",
      "banco_original_osm": "BancoEstado"
    },
    {
      "id": 11384457432,
      "banco": "BancoEstado",
      "lat": -33.5707127,
      "lon": -70.6738764,
      "direccion": "",
      "ciudad": "",
      "nombre_lugar": "",
      "horario": "",
      "acceso": "",
      "fuente": "OpenStreetMap",
      "banco_original_osm": "BancoEstado"
    },
    {
      "id": 11387882903,
      "banco": "BancoEstado",
      "lat": -33.5604311,
      "lon": -70.6701339,
      "direccion": "",
      "ciudad": "",
      "nombre_lugar": "",
      "horario": "",
      "acceso": "",
      "fuente": "OpenStreetMap",
      "banco_original_osm": "BancoEstado"
    },
    {
      "id": 11387883705,
      "banco": "BancoEstado",
      "lat": -33.5465413,
      "lon": -70.6669503,
      "direccion": "",
      "ciudad": "",
      "nombre_lugar": "",
      "horario": "",
      "acceso": "",
      "fuente": "OpenStreetMap",
      "banco_original_osm": "BancoEstado"
    },
    {
      "id": 11395021969,
      "banco": "Banco de Chile",
      "lat": -33.463072,
      "lon": -70.6067706,
      "direccion": "",
      "ciudad": "",
      "nombre_lugar": "",
      "horario": "",
      "acceso": "",
      "fuente": "OpenStreetMap",
      "banco_original_osm": "Banco de Chile"
    },
    {
      "id": 11399039206,
      "banco": "Banco Falabella",
      "lat": -33.6323699,
      "lon": -70.707899,
      "direccion": "Avenida Presidente Jorge Alessandri Rodríguez 20040",
      "ciudad": "San Bernardo",
      "nombre_lugar": "",
      "horario": "",
      "acceso": "",
      "fuente": "OpenStreetMap",
      "banco_original_osm": "Banco Falabella"
    },
    {
      "id": 11399039254,
      "banco": "BancoEstado",
      "lat": -33.6323482,
      "lon": -70.7080225,
      "direccion": "Avenida Presidente Jorge Alessandri Rodríguez 20040",
      "ciudad": "San Bernardo",
      "nombre_lugar": "",
      "horario": "",
      "acceso": "",
      "fuente": "OpenStreetMap",
      "banco_original_osm": "BancoEstado"
    },
    {
      "id": 11399039255,
      "banco": "BCI",
      "lat": -33.6323859,
      "lon": -70.7078063,
      "direccion": "Avenida Presidente Jorge Alessandri Rodríguez 20040",
      "ciudad": "San Bernardo",
      "nombre_lugar": "",
      "horario": "",
      "acceso": "",
      "fuente": "OpenStreetMap",
      "banco_original_osm": "BCI"
    },
    {
      "id": 11415498614,
      "banco": "BancoEstado",
      "lat": -33.5020612,
      "lon": -70.6898786,
      "direccion": "",
      "ciudad": "",
      "nombre_lugar": "Banco Estado",
      "horario": "",
      "acceso": "",
      "fuente": "OpenStreetMap",
      "banco_original_osm": "BancoEstado"
    },
    {
      "id": 11507724208,
      "banco": "Scotiabank",
      "lat": -33.5215043,
      "lon": -70.5991307,
      "direccion": "",
      "ciudad": "",
      "nombre_lugar": "",
      "horario": "",
      "acceso": "",
      "fuente": "OpenStreetMap",
      "banco_original_osm": "Scotiabank"
    },
    {
      "id": 11507724209,
      "banco": "BCI",
      "lat": -33.5212078,
      "lon": -70.5991662,
      "direccion": "",
      "ciudad": "",
      "nombre_lugar": "",
      "horario": "",
      "acceso": "",
      "fuente": "OpenStreetMap",
      "banco_original_osm": "BCI"
    },
    {
      "id": 11507724210,
      "banco": "Banco de Chile",
      "lat": -33.521406,
      "lon": -70.6009557,
      "direccion": "",
      "ciudad": "",
      "nombre_lugar": "",
      "horario": "",
      "acceso": "",
      "fuente": "OpenStreetMap",
      "banco_original_osm": "Banco de Chile"
    },
    {
      "id": 11507771145,
      "banco": "BancoEstado",
      "lat": -33.4725494,
      "lon": -70.6483262,
      "direccion": "",
      "ciudad": "",
      "nombre_lugar": "",
      "horario": "",
      "acceso": "",
      "fuente": "OpenStreetMap",
      "banco_original_osm": "BancoEstado"
    },
    {
      "id": 11527200387,
      "banco": "BancoEstado",
      "lat": -33.756045,
      "lon": -70.8971445,
      "direccion": "",
      "ciudad": "",
      "nombre_lugar": "",
      "horario": "",
      "acceso": "",
      "fuente": "OpenStreetMap",
      "banco_original_osm": "BancoEstado"
    },
    {
      "id": 11527213418,
      "banco": "BancoEstado",
      "lat": -33.6638627,
      "lon": -70.9271901,
      "direccion": "",
      "ciudad": "",
      "nombre_lugar": "",
      "horario": "",
      "acceso": "",
      "fuente": "OpenStreetMap",
      "banco_original_osm": "BancoEstado"
    },
    {
      "id": 11527233159,
      "banco": "BancoEstado",
      "lat": -33.6078989,
      "lon": -70.8994527,
      "direccion": "",
      "ciudad": "",
      "nombre_lugar": "Banco Estado",
      "horario": "",
      "acceso": "",
      "fuente": "OpenStreetMap",
      "banco_original_osm": "BancoEstado"
    },
    {
      "id": 11539190125,
      "banco": "BancoEstado",
      "lat": -33.4529186,
      "lon": -70.5717058,
      "direccion": "",
      "ciudad": "",
      "nombre_lugar": "",
      "horario": "",
      "acceso": "",
      "fuente": "OpenStreetMap",
      "banco_original_osm": "BancoEstado"
    },
    {
      "id": 11563084821,
      "banco": "BancoEstado",
      "lat": -33.4421868,
      "lon": -70.6525136,
      "direccion": "",
      "ciudad": "",
      "nombre_lugar": "",
      "horario": "",
      "acceso": "",
      "fuente": "OpenStreetMap",
      "banco_original_osm": "BancoEstado"
    },
    {
      "id": 11585106419,
      "banco": "BCI",
      "lat": -33.4913258,
      "lon": -70.6669608,
      "direccion": "Avenida Club Hípico 4676",
      "ciudad": "",
      "nombre_lugar": "BCI",
      "horario": "",
      "acceso": "",
      "fuente": "OpenStreetMap",
      "banco_original_osm": "BCI"
    },
    {
      "id": 11607742714,
      "banco": "Santander",
      "lat": -33.3963911,
      "lon": -70.7932569,
      "direccion": "Armando Cortínez Oriente 1704",
      "ciudad": "",
      "nombre_lugar": "",
      "horario": "",
      "acceso": "",
      "fuente": "OpenStreetMap",
      "banco_original_osm": "Santander"
    },
    {
      "id": 11607742715,
      "banco": "Santander",
      "lat": -33.3964088,
      "lon": -70.7942455,
      "direccion": "Armando Cortínez Oriente 1704",
      "ciudad": "",
      "nombre_lugar": "",
      "horario": "",
      "acceso": "",
      "fuente": "OpenStreetMap",
      "banco_original_osm": "Santander"
    },
    {
      "id": 11613574314,
      "banco": "Banco de Chile",
      "lat": -33.6237674,
      "lon": -70.7997688,
      "direccion": "",
      "ciudad": "",
      "nombre_lugar": "",
      "horario": "",
      "acceso": "",
      "fuente": "OpenStreetMap",
      "banco_original_osm": "Banco de Chile"
    },
    {
      "id": 11650686509,
      "banco": "Santander",
      "lat": -33.3995233,
      "lon": -70.7916719,
      "direccion": "Jean Mermoz 2150",
      "ciudad": "Pudahuel",
      "nombre_lugar": "",
      "horario": "",
      "acceso": "",
      "fuente": "OpenStreetMap",
      "banco_original_osm": "Santander"
    },
    {
      "id": 11674185660,
      "banco": "Banco de Chile",
      "lat": -33.5039066,
      "lon": -70.6554446,
      "direccion": "",
      "ciudad": "",
      "nombre_lugar": "",
      "horario": "",
      "acceso": "",
      "fuente": "OpenStreetMap",
      "banco_original_osm": "Banco de Chile"
    },
    {
      "id": 11674185661,
      "banco": "BCI",
      "lat": -33.5042505,
      "lon": -70.6547514,
      "direccion": "",
      "ciudad": "",
      "nombre_lugar": "",
      "horario": "",
      "acceso": "",
      "fuente": "OpenStreetMap",
      "banco_original_osm": "BCI"
    },
    {
      "id": 11936017472,
      "banco": "BancoEstado",
      "lat": -33.4553256,
      "lon": -70.5973953,
      "direccion": "",
      "ciudad": "",
      "nombre_lugar": "",
      "horario": "",
      "acceso": "",
      "fuente": "OpenStreetMap",
      "banco_original_osm": "BancoEstado"
    },
    {
      "id": 11949130893,
      "banco": "BancoEstado",
      "lat": -33.4568077,
      "lon": -70.7052244,
      "direccion": "",
      "ciudad": "",
      "nombre_lugar": "",
      "horario": "",
      "acceso": "",
      "fuente": "OpenStreetMap",
      "banco_original_osm": "BancoEstado"
    },
    {
      "id": 11959587238,
      "banco": "Scotiabank",
      "lat": -33.5108533,
      "lon": -70.758628,
      "direccion": "Avenida 5 de Abril 98",
      "ciudad": "Maipú",
      "nombre_lugar": "Scotiabank",
      "horario": "Mo-Fr 09:00-14:00",
      "acceso": "",
      "fuente": "OpenStreetMap",
      "banco_original_osm": "Scotiabank"
    },
    {
      "id": 11967456106,
      "banco": "BancoEstado (Caja Vecina)",
      "lat": -33.6141631,
      "lon": -70.6255847,
      "direccion": "Río Volcán 3877",
      "ciudad": "Puente Alto",
      "nombre_lugar": "Caja Vecina",
      "horario": "",
      "acceso": "",
      "fuente": "OpenStreetMap",
      "banco_original_osm": "BancoEstado"
    },
    {
      "id": 11977451950,
      "banco": "Itaú Corpbanca",
      "lat": -33.4558865,
      "lon": -70.5867085,
      "direccion": "",
      "ciudad": "",
      "nombre_lugar": "",
      "horario": "",
      "acceso": "",
      "fuente": "OpenStreetMap",
      "banco_original_osm": "Itaú"
    },
    {
      "id": 11977451951,
      "banco": "Banco de Chile",
      "lat": -33.4558025,
      "lon": -70.5863041,
      "direccion": "",
      "ciudad": "",
      "nombre_lugar": "",
      "horario": "",
      "acceso": "",
      "fuente": "OpenStreetMap",
      "banco_original_osm": "Banco de Chile"
    },
    {
      "id": 11985117174,
      "banco": "BancoEstado (Caja Vecina)",
      "lat": -33.6161807,
      "lon": -70.6258626,
      "direccion": "",
      "ciudad": "",
      "nombre_lugar": "Caja Vecina",
      "horario": "",
      "acceso": "",
      "fuente": "OpenStreetMap",
      "banco_original_osm": "BancoEstado"
    },
    {
      "id": 11989020241,
      "banco": "Banco de Chile",
      "lat": -33.5099313,
      "lon": -70.6073233,
      "direccion": "Avenida Vicuña Mackenna Oriente 6100",
      "ciudad": "La Florida",
      "nombre_lugar": "",
      "horario": "",
      "acceso": "",
      "fuente": "OpenStreetMap",
      "banco_original_osm": "Banco de Chile"
    },
    {
      "id": 11989020242,
      "banco": "Banco de Chile",
      "lat": -33.5099605,
      "lon": -70.6073583,
      "direccion": "Avenida Vicuña Mackenna Oriente 6100",
      "ciudad": "La Florida",
      "nombre_lugar": "",
      "horario": "",
      "acceso": "",
      "fuente": "OpenStreetMap",
      "banco_original_osm": "Banco de Chile"
    },
    {
      "id": 12041320391,
      "banco": "BancoEstado",
      "lat": -33.6152303,
      "lon": -70.6221344,
      "direccion": "",
      "ciudad": "",
      "nombre_lugar": "",
      "horario": "",
      "acceso": "",
      "fuente": "OpenStreetMap",
      "banco_original_osm": "BancoEstado"
    },
    {
      "id": 12041808972,
      "banco": "BancoEstado",
      "lat": -33.6131597,
      "lon": -70.6240072,
      "direccion": "",
      "ciudad": "",
      "nombre_lugar": "",
      "horario": "",
      "acceso": "",
      "fuente": "OpenStreetMap",
      "banco_original_osm": "BancoEstado"
    },
    {
      "id": 12056214155,
      "banco": "BancoEstado",
      "lat": -33.4177542,
      "lon": -70.6567285,
      "direccion": "",
      "ciudad": "",
      "nombre_lugar": "",
      "horario": "",
      "acceso": "",
      "fuente": "OpenStreetMap",
      "banco_original_osm": "BancoEstado"
    },
    {
      "id": 12058240838,
      "banco": "Santander",
      "lat": -33.4168659,
      "lon": -70.6004984,
      "direccion": "",
      "ciudad": "",
      "nombre_lugar": "",
      "horario": "",
      "acceso": "",
      "fuente": "OpenStreetMap",
      "banco_original_osm": "Santander"
    },
    {
      "id": 12058240844,
      "banco": "Santander",
      "lat": -33.4150911,
      "lon": -70.6011165,
      "direccion": "",
      "ciudad": "",
      "nombre_lugar": "",
      "horario": "",
      "acceso": "",
      "fuente": "OpenStreetMap",
      "banco_original_osm": "Santander"
    },
    {
      "id": 12065897961,
      "banco": "BancoEstado (Caja Vecina)",
      "lat": -33.6146797,
      "lon": -70.6209314,
      "direccion": "",
      "ciudad": "",
      "nombre_lugar": "Caja Vecina",
      "horario": "",
      "acceso": "",
      "fuente": "OpenStreetMap",
      "banco_original_osm": "BancoEstado"
    },
    {
      "id": 12070756087,
      "banco": "Santander",
      "lat": -33.45444,
      "lon": -70.6055796,
      "direccion": "",
      "ciudad": "",
      "nombre_lugar": "",
      "horario": "",
      "acceso": "",
      "fuente": "OpenStreetMap",
      "banco_original_osm": "Santander"
    },
    {
      "id": 12110515179,
      "banco": "BancoEstado",
      "lat": -33.4928506,
      "lon": -70.7043988,
      "direccion": "",
      "ciudad": "",
      "nombre_lugar": "",
      "horario": "",
      "acceso": "",
      "fuente": "OpenStreetMap",
      "banco_original_osm": "BancoEstado"
    },
    {
      "id": 12138704946,
      "banco": "BancoEstado",
      "lat": -33.4647406,
      "lon": -70.6073933,
      "direccion": "",
      "ciudad": "",
      "nombre_lugar": "Cajero BancoEstado",
      "horario": "",
      "acceso": "",
      "fuente": "OpenStreetMap",
      "banco_original_osm": "BancoEstado"
    },
    {
      "id": 12143312656,
      "banco": "BancoEstado",
      "lat": -33.5722439,
      "lon": -70.7011359,
      "direccion": "",
      "ciudad": "",
      "nombre_lugar": "",
      "horario": "",
      "acceso": "",
      "fuente": "OpenStreetMap",
      "banco_original_osm": "BancoEstado"
    },
    {
      "id": 12143313442,
      "banco": "Banco de Chile",
      "lat": -33.4417836,
      "lon": -70.6533089,
      "direccion": "",
      "ciudad": "",
      "nombre_lugar": "",
      "horario": "",
      "acceso": "",
      "fuente": "OpenStreetMap",
      "banco_original_osm": "Citibank"
    },
    {
      "id": 12143313443,
      "banco": "BancoEstado",
      "lat": -33.4426772,
      "lon": -70.6520562,
      "direccion": "",
      "ciudad": "",
      "nombre_lugar": "",
      "horario": "",
      "acceso": "",
      "fuente": "OpenStreetMap",
      "banco_original_osm": "BancoEstado"
    },
    {
      "id": 12145069160,
      "banco": "Santander",
      "lat": -33.4065773,
      "lon": -70.5612832,
      "direccion": "",
      "ciudad": "",
      "nombre_lugar": "",
      "horario": "",
      "acceso": "",
      "fuente": "OpenStreetMap",
      "banco_original_osm": "Santander"
    },
    {
      "id": 12147127148,
      "banco": "BCI",
      "lat": -33.4078345,
      "lon": -70.5410746,
      "direccion": "",
      "ciudad": "",
      "nombre_lugar": "",
      "horario": "",
      "acceso": "",
      "fuente": "OpenStreetMap",
      "banco_original_osm": "BCI"
    },
    {
      "id": 12148811177,
      "banco": "BancoEstado",
      "lat": -33.452337,
      "lon": -70.6801505,
      "direccion": "",
      "ciudad": "Estación Central",
      "nombre_lugar": "Banco Estado Express",
      "horario": "",
      "acceso": "",
      "fuente": "OpenStreetMap",
      "banco_original_osm": "BancoEstado"
    },
    {
      "id": 12219868267,
      "banco": "Banco de Chile",
      "lat": -33.4831983,
      "lon": -70.6948245,
      "direccion": "",
      "ciudad": "",
      "nombre_lugar": "",
      "horario": "",
      "acceso": "",
      "fuente": "OpenStreetMap",
      "banco_original_osm": "Banco de Chile"
    },